[
  {
    "name": "Kyuquot (Ka:'yu:'k't'h' / Che:k:tles7et'h' First Nations)",
    "province": "BC",
    "latitude": 50.0306,
    "longitude": -127.3782,
    "isFirstNation": true
  },
  {
    "name": "Six Nations of the Grand River (Bay of Quinte Mohawk / Ohsweken)",
    "province": "ON",
    "latitude": 43.0704,
    "longitude": -80.1175,
    "isFirstNation": true
  },
  {
    "name": "Mamalilikulla-Qwe'Qwa'Sot'Em (Mamalilikulla First Nation)",
    "province": "BC",
    "latitude": 50.5942,
    "longitude": -126.6823,
    "isFirstNation": true
  },
  {
    "name": "Waycobah First Nation (We'koqma'q First Nation / Whycocomagh)",
    "province": "NS",
    "latitude": 45.9714,
    "longitude": -61.1377,
    "isFirstNation": true
  },
  {
    "name": "Wet'suwet'en Village (Wet'suwet'en First Nation)",
    "province": "BC",
    "latitude": 54.3307,
    "longitude": -125.8882,
    "isFirstNation": true
  },
  {
    "name": "Black Sturgeon Indian Reserve (Marcel Colomb First Nation)",
    "province": "MB",
    "latitude": 56.8028,
    "longitude": -100.5831,
    "isFirstNation": true
  },
  {
    "name": "Oak Lake Reserve (Canupawakpa Dakota First Nation)",
    "province": "MB",
    "latitude": 49.6205,
    "longitude": -100.9454,
    "isFirstNation": true
  },
  {
    "name": "Mosquito, Grizzly Bear's Head, Lean Man First Nations",
    "province": "SK",
    "latitude": 52.4904,
    "longitude": -108.2484,
    "isFirstNation": true
  },
  {
    "name": "South Indian Lake (O-Pipon-Na-Piwin Cree Nation)",
    "province": "MB",
    "latitude": 56.7745,
    "longitude": -98.9328,
    "isFirstNation": true
  },
  {
    "name": "Ginew (Roseau River Anishinabe First Nation Government)",
    "province": "MB",
    "latitude": 49.1332,
    "longitude": -97.2398,
    "isFirstNation": true
  },
  {
    "name": "Matimekosh (La Nation Innu Matimekush-Lac John / Schefferville)",
    "province": "QC",
    "latitude": 54.8045,
    "longitude": -66.814,
    "isFirstNation": true
  },
  {
    "name": "Canoe Creek (Stswecem'c Xgat'tem First Nation)",
    "province": "BC",
    "latitude": 51.5888,
    "longitude": -122.209,
    "isFirstNation": true
  },
  {
    "name": "Fort Providence (Deh Gáh Got'ie Dene First Nation)",
    "province": "NT",
    "latitude": 61.3576,
    "longitude": -117.6607,
    "isFirstNation": true
  },
  {
    "name": "Algonquins of Pikwakanagan First Nation (Golden Lake)",
    "province": "ON",
    "latitude": 45.5755,
    "longitude": -77.2501,
    "isFirstNation": true
  },
  {
    "name": "Little Salmon / Carmacks First Nation (Carmacks Landing)",
    "province": "YT",
    "latitude": 62.0962,
    "longitude": -136.2889,
    "isFirstNation": true
  },
  {
    "name": "Sheshatshiu Innu First Nation (North West River)",
    "province": "NL",
    "latitude": 53.5217,
    "longitude": -60.1461,
    "isFirstNation": true
  },
  {
    "name": "Beaver Creek (White River First Nation)",
    "province": "YT",
    "latitude": 62.3838,
    "longitude": -140.8753,
    "isFirstNation": true
  },
  {
    "name": "Little Black River (Black River First Nation)",
    "province": "MB",
    "latitude": 50.8304,
    "longitude": -96.3099,
    "isFirstNation": true
  },
  {
    "name": "Kejick (Iskatewizaagegan 39 Independent First Nation)",
    "province": "ON",
    "latitude": 49.6256,
    "longitude": -95.0993,
    "isFirstNation": true
  },
  {
    "name": "Shxw'ow'hamel First Nation (Ruby Creek)",
    "province": "BC",
    "latitude": 49.343,
    "longitude": -121.6067,
    "isFirstNation": true
  },
  {
    "name": "Valley River Reserve (Tootinaowaziibeeng Treaty Reserve)",
    "province": "MB",
    "latitude": 51.2279,
    "longitude": -100.9727,
    "isFirstNation": true
  },
  {
    "name": "Crow Lake (Ojibways of Onigaming First Nation)",
    "province": "ON",
    "latitude": 49.1727,
    "longitude": -93.9265,
    "isFirstNation": true
  },
  {
    "name": "Canoe Narrows (Canoe Lake Cree First Nation)",
    "province": "SK",
    "latitude": 55.1636,
    "longitude": -108.1574,
    "isFirstNation": true
  },
  {
    "name": "Songhees First Nation",
    "province": "BC",
    "latitude": 48.4414,
    "longitude": -123.4282,
    "isFirstNation": true
  },
  {
    "name": "Première Nation des Innus de Nutashkuan (Pointe-Parent)",
    "province": "QC",
    "latitude": 50.1337,
    "longitude": -61.8024,
    "isFirstNation": true
  },
  {
    "name": "Haines Junction (Champagne and Aishihik First Nations)",
    "province": "YT",
    "latitude": 60.7526,
    "longitude": -137.5064,
    "isFirstNation": true
  },
  {
    "name": "Peerless Lake (Peerless Trout First Nation)",
    "province": "AB",
    "latitude": 56.6784,
    "longitude": -114.5819,
    "isFirstNation": true
  },
  {
    "name": "O-Chi-Chak-Ko-Sipi First Nation",
    "province": "MB",
    "latitude": 51.5035,
    "longitude": -99.2578,
    "isFirstNation": true
  },
  {
    "name": "Island Lake (Ministikwan Lake Cree Nation)",
    "province": "SK",
    "latitude": 54.0501,
    "longitude": -109.6696,
    "isFirstNation": true
  },
  {
    "name": "Makwa Sahgaiehcan First Nation (Loon Lake)",
    "province": "SK",
    "latitude": 54.0274,
    "longitude": -109.1653,
    "isFirstNation": true
  },
  {
    "name": "Fox Lake (Little Red River Cree Nation)",
    "province": "AB",
    "latitude": 58.4649,
    "longitude": -114.5335,
    "isFirstNation": true
  },
  {
    "name": "Trout Lake (Sambaa K'e First Nation)",
    "province": "NT",
    "latitude": 60.4418,
    "longitude": -121.2414,
    "isFirstNation": true
  },
  {
    "name": "Colville Lake (Behdzi Ahda First Nation)",
    "province": "NT",
    "latitude": 67.0394,
    "longitude": -126.0871,
    "isFirstNation": true
  },
  {
    "name": "Wekweètì (Dechi Laot'i First Nations)",
    "province": "NT",
    "latitude": 64.1899,
    "longitude": -114.185,
    "isFirstNation": true
  },
  {
    "name": "Mississaugas of Scugog Island First Nation",
    "province": "ON",
    "latitude": 44.194,
    "longitude": -78.8806,
    "isFirstNation": true
  },
  {
    "name": "Tadoule Lake (Sayisi Dene First Nation)",
    "province": "MB",
    "latitude": 58.7161,
    "longitude": -98.4865,
    "isFirstNation": true
  },
  {
    "name": "Waywayseecappo First Nation Treaty Four - 1874",
    "province": "MB",
    "latitude": 50.6797,
    "longitude": -100.8805,
    "isFirstNation": true
  },
  {
    "name": "West Bay (M'Chigeeng First Nation)",
    "province": "ON",
    "latitude": 45.8253,
    "longitude": -82.1617,
    "isFirstNation": true
  },
  {
    "name": "Hartley Bay (Gitga'at First Nation)",
    "province": "BC",
    "latitude": 53.4253,
    "longitude": -129.2519,
    "isFirstNation": true
  },
  {
    "name": "Opitsat (Tla-o-qui-aht First Nations)",
    "province": "BC",
    "latitude": 49.1733,
    "longitude": -125.9121,
    "isFirstNation": true
  },
  {
    "name": "Lac Brochet (Northlands Denesuline First Nation)",
    "province": "MB",
    "latitude": 58.6185,
    "longitude": -101.488,
    "isFirstNation": true
  },
  {
    "name": "Chippewas of Nawash First Nation (Halfway Point)",
    "province": "ON",
    "latitude": 44.903,
    "longitude": -81.0268,
    "isFirstNation": true
  },
  {
    "name": "Skownan First Nation (Waterhen)",
    "province": "MB",
    "latitude": 51.9686,
    "longitude": -99.5983,
    "isFirstNation": true
  },
  {
    "name": "Fort Resolution (Deninu K'ue First Nation)",
    "province": "NT",
    "latitude": 61.1724,
    "longitude": -113.6738,
    "isFirstNation": true
  },
  {
    "name": "Qalipu Mi'kmaq First Nation (Corner Brook)",
    "province": "NL",
    "latitude": 48.9503,
    "longitude": -57.9374,
    "isFirstNation": true
  },
  {
    "name": "Parry Island (Wasauksing First Nation)",
    "province": "ON",
    "latitude": 45.3261,
    "longitude": -80.057,
    "isFirstNation": true
  },
  {
    "name": "Pakwaw Lake (Shoal Lake Cree Nation)",
    "province": "SK",
    "latitude": 53.483,
    "longitude": -102.6323,
    "isFirstNation": true
  },
  {
    "name": "Chapel Island (Potlotek First Nation)",
    "province": "NS",
    "latitude": 45.6832,
    "longitude": -60.7676,
    "isFirstNation": true
  },
  {
    "name": "Pikogan (Conseil de la Première Nation Abitibiwinni)",
    "province": "QC",
    "latitude": 48.5973,
    "longitude": -78.1207,
    "isFirstNation": true
  },
  {
    "name": "Brokenhead Reserve (Brokenhead Ojibway Nation)",
    "province": "MB",
    "latitude": 50.3669,
    "longitude": -96.6164,
    "isFirstNation": true
  },
  {
    "name": "Bear Island (Temagami First Nation)",
    "province": "ON",
    "latitude": 46.9732,
    "longitude": -80.0721,
    "isFirstNation": true
  },
  {
    "name": "Mashteuiatsh (Première Nation des Pekuakamiulnuatsh)",
    "province": "QC",
    "latitude": 48.5765,
    "longitude": -72.229,
    "isFirstNation": true
  },
  {
    "name": "Pavilion (Ts'kw'aylaxw First Nation)",
    "province": "BC",
    "latitude": 50.8859,
    "longitude": -121.819,
    "isFirstNation": true
  },
  {
    "name": "Rama Road (Chippewas of Rama First Nation)",
    "province": "ON",
    "latitude": 44.6467,
    "longitude": -79.3513,
    "isFirstNation": true
  },
  {
    "name": "Yellowknives Dene First Nation",
    "province": "NT",
    "latitude": 62.4551,
    "longitude": -114.3756,
    "isFirstNation": true
  },
  {
    "name": "Indian Birch (Wuskwi Sipihk First Nation)",
    "province": "MB",
    "latitude": 52.5091,
    "longitude": -100.8705,
    "isFirstNation": true
  },
  {
    "name": "Fort Liard (Acho Dene Koe First Nation)",
    "province": "NT",
    "latitude": 60.2403,
    "longitude": -123.4741,
    "isFirstNation": true
  },
  {
    "name": "Kakisa (Ka'a'gee Tu First Nation)",
    "province": "NT",
    "latitude": 60.94,
    "longitude": -117.4167,
    "isFirstNation": true
  },
  {
    "name": "Long Lake 58 First Nation",
    "province": "ON",
    "latitude": 49.7868,
    "longitude": -86.5731,
    "isFirstNation": true
  },
  {
    "name": "Ochiichagwe'babigo'ining First Nation",
    "province": "ON",
    "latitude": 49.8924,
    "longitude": -94.5434,
    "isFirstNation": true
  },
  {
    "name": "Fort McKay First Nation (Fort MacKay)",
    "province": "AB",
    "latitude": 57.1795,
    "longitude": -111.6349,
    "isFirstNation": true
  },
  {
    "name": "Deroche (Leq' a: mel First Nation)",
    "province": "BC",
    "latitude": 49.1875,
    "longitude": -122.0746,
    "isFirstNation": true
  },
  {
    "name": "Xeni Gwet'in First Nations Government",
    "province": "BC",
    "latitude": 51.4154,
    "longitude": -124.0956,
    "isFirstNation": true
  },
  {
    "name": "York Landing (York Factory First Nation)",
    "province": "MB",
    "latitude": 56.0875,
    "longitude": -96.099,
    "isFirstNation": true
  },
  {
    "name": "Première Nation des Abénakis de Wôlinak",
    "province": "QC",
    "latitude": 46.3286,
    "longitude": -72.4216,
    "isFirstNation": true
  },
  {
    "name": "Watson Lake (Liard First Nation)",
    "province": "YT",
    "latitude": 60.066,
    "longitude": -128.7165,
    "isFirstNation": true
  },
  {
    "name": "Swan River First Nation (Kinuso)",
    "province": "AB",
    "latitude": 55.3259,
    "longitude": -115.4334,
    "isFirstNation": true
  },
  {
    "name": "Fisher River Cree Nation (Fisher River)",
    "province": "MB",
    "latitude": 51.4379,
    "longitude": -97.3872,
    "isFirstNation": true
  },
  {
    "name": "Burnt Church (Esgenoopetitj First Nation)",
    "province": "NB",
    "latitude": 47.2078,
    "longitude": -65.1167,
    "isFirstNation": true
  },
  {
    "name": "Salt River First Nation 195",
    "province": "NT",
    "latitude": 60.107,
    "longitude": -112.2349,
    "isFirstNation": true
  },
  {
    "name": "Moose Factory (Moose Cree First Nation)",
    "province": "ON",
    "latitude": 51.2626,
    "longitude": -80.6005,
    "isFirstNation": true
  },
  {
    "name": "Stanjikoming (Mitaanjigamiing First Nation)",
    "province": "ON",
    "latitude": 48.711,
    "longitude": -93.3862,
    "isFirstNation": true
  },
  {
    "name": "The Crees of the Waskaganish First Nation",
    "province": "QC",
    "latitude": 51.4862,
    "longitude": -78.7534,
    "isFirstNation": true
  },
  {
    "name": "Old Crow (Vuntut Gwitchin First Nation)",
    "province": "YT",
    "latitude": 67.5704,
    "longitude": -139.8278,
    "isFirstNation": true
  },
  {
    "name": "Kingcome (Dzawada'enuxw First Nation)",
    "province": "BC",
    "latitude": 50.9773,
    "longitude": -126.1802,
    "isFirstNation": true
  },
  {
    "name": "Ilford (War Lake First Nation)",
    "province": "MB",
    "latitude": 56.0684,
    "longitude": -95.5965,
    "isFirstNation": true
  },
  {
    "name": "Chiniki (Bearspaw / Stoney / Wesley / Morley)",
    "province": "AB",
    "latitude": 51.17,
    "longitude": -114.8463,
    "isFirstNation": true
  },
  {
    "name": "Jean Marie River First Nation",
    "province": "NT",
    "latitude": 61.5254,
    "longitude": -120.6251,
    "isFirstNation": true
  },
  {
    "name": "Ojibways of the Pic River (Biigtigong Nishnaabeg)",
    "province": "ON",
    "latitude": 48.6261,
    "longitude": -86.269,
    "isFirstNation": true
  },
  {
    "name": "Mayo (First Nation of Nacho Nyak Dun)",
    "province": "YT",
    "latitude": 63.5948,
    "longitude": -135.8973,
    "isFirstNation": true
  },
  {
    "name": "Cumberland House Cree Nation (Pemmican Portage)",
    "province": "SK",
    "latitude": 53.9419,
    "longitude": -102.2849,
    "isFirstNation": true
  },
  {
    "name": "Chemainus (Stz'uminus First Nation)",
    "province": "BC",
    "latitude": 48.993,
    "longitude": -123.7721,
    "isFirstNation": true
  },
  {
    "name": "Summer Beaver (Nibinamik First Nation)",
    "province": "ON",
    "latitude": 52.7455,
    "longitude": -88.5161,
    "isFirstNation": true
  },
  {
    "name": "Pelican Narrows (Peter Ballantyne Cree Nation)",
    "province": "SK",
    "latitude": 55.1724,
    "longitude": -102.9342,
    "isFirstNation": true
  },
  {
    "name": "Première Nation Malecite de Viger (Cacouna)",
    "province": "QC",
    "latitude": 47.918,
    "longitude": -69.5076,
    "isFirstNation": true
  },
  {
    "name": "Mushuau Innu First Nation (Natuashish)",
    "province": "NL",
    "latitude": 55.914,
    "longitude": -61.1192,
    "isFirstNation": true
  },
  {
    "name": "Boston Bar First Nation (North Bend)",
    "province": "BC",
    "latitude": 49.8772,
    "longitude": -121.4504,
    "isFirstNation": true
  },
  {
    "name": "Communauté anicinape de Kitcisakik (Val-d'Or)",
    "province": "QC",
    "latitude": 48.1017,
    "longitude": -77.7835,
    "isFirstNation": true
  },
  {
    "name": "Blueberry River First Nations",
    "province": "BC",
    "latitude": 56.704,
    "longitude": -121.1124,
    "isFirstNation": true
  },
  {
    "name": "Gods River (Manto Sipi Cree Nation)",
    "province": "MB",
    "latitude": 54.8358,
    "longitude": -94.053,
    "isFirstNation": true
  },
  {
    "name": "Jackhead (Kinonjeoshtegon First Nation)",
    "province": "MB",
    "latitude": 51.9171,
    "longitude": -97.311,
    "isFirstNation": true
  },
  {
    "name": "Big Island Lake Cree Nation",
    "province": "SK",
    "latitude": 54.4084,
    "longitude": -109.6269,
    "isFirstNation": true
  },
  {
    "name": "Pelly Crossing (Selkirk First Nation)",
    "province": "YT",
    "latitude": 62.8239,
    "longitude": -136.5729,
    "isFirstNation": true
  },
  {
    "name": "Kluane First Nation (Burwash Landing)",
    "province": "YT",
    "latitude": 61.3565,
    "longitude": -138.9902,
    "isFirstNation": true
  },
  {
    "name": "Eel River Bar First Nation",
    "province": "NB",
    "latitude": 48.0354,
    "longitude": -66.3742,
    "isFirstNation": true
  },
  {
    "name": "Fort McMurray 468 First Nation",
    "province": "AB",
    "latitude": 56.4135,
    "longitude": -111.1575,
    "isFirstNation": true
  },
  {
    "name": "K'ómoks First Nation (Comox)",
    "province": "BC",
    "latitude": 49.6788,
    "longitude": -124.9589,
    "isFirstNation": true
  },
  {
    "name": "Health Bay (Kwikwasut'inuxw Haxwa'mis)",
    "province": "BC",
    "latitude": 50.6964,
    "longitude": -126.6006,
    "isFirstNation": true
  },
  {
    "name": "God's Lake First Nation",
    "province": "MB",
    "latitude": 54.5474,
    "longitude": -94.5018,
    "isFirstNation": true
  },
  {
    "name": "Mosakahiken Cree Nation (Moose Lake)",
    "province": "MB",
    "latitude": 53.7056,
    "longitude": -100.3148,
    "isFirstNation": true
  },
  {
    "name": "Fort Hope (Eabametoong First Nation)",
    "province": "ON",
    "latitude": 51.5589,
    "longitude": -87.8881,
    "isFirstNation": true
  },
  {
    "name": "Lac-Rapide (Algonquins of Barriere Lake)",
    "province": "QC",
    "latitude": 47.2544,
    "longitude": -76.708,
    "isFirstNation": true
  },
  {
    "name": "Halfway River First Nation",
    "province": "BC",
    "latitude": 56.5134,
    "longitude": -121.965,
    "isFirstNation": true
  },
  {
    "name": "Lake Cowichan First Nation",
    "province": "BC",
    "latitude": 48.826,
    "longitude": -124.0697,
    "isFirstNation": true
  },
  {
    "name": "Prophet River First Nation",
    "province": "BC",
    "latitude": 58.092,
    "longitude": -122.6982,
    "isFirstNation": true
  },
  {
    "name": "Big Cove (Elsipogtog First Nation)",
    "province": "NB",
    "latitude": 46.5861,
    "longitude": -64.9856,
    "isFirstNation": true
  },
  {
    "name": "Chippewas of the Thames First Nation",
    "province": "ON",
    "latitude": 42.819,
    "longitude": -81.4734,
    "isFirstNation": true
  },
  {
    "name": "Winneway (Long Point First Nation)",
    "province": "QC",
    "latitude": 47.5775,
    "longitude": -78.5648,
    "isFirstNation": true
  },
  {
    "name": "Dillon (Buffalo River Dene Nation)",
    "province": "SK",
    "latitude": 55.9296,
    "longitude": -108.9353,
    "isFirstNation": true
  },
  {
    "name": "English River First Nation",
    "province": "SK",
    "latitude": 55.9153,
    "longitude": -107.7173,
    "isFirstNation": true
  },
  {
    "name": "Sturgeon Lake First Nation",
    "province": "SK",
    "latitude": 53.3864,
    "longitude": -106.126,
    "isFirstNation": true
  },
  {
    "name": "Poplar River First Nation",
    "province": "MB",
    "latitude": 52.9943,
    "longitude": -97.277,
    "isFirstNation": true
  },
  {
    "name": "Lutsel K'e Dene First Nation",
    "province": "NT",
    "latitude": 62.4047,
    "longitude": -110.7387,
    "isFirstNation": true
  },
  {
    "name": "Garden River First Nation",
    "province": "ON",
    "latitude": 46.5368,
    "longitude": -84.1502,
    "isFirstNation": true
  },
  {
    "name": "Henvey Inlet First Nation",
    "province": "ON",
    "latitude": 45.9758,
    "longitude": -80.5614,
    "isFirstNation": true
  },
  {
    "name": "Rainy River First Nations",
    "province": "ON",
    "latitude": 48.6372,
    "longitude": -93.9126,
    "isFirstNation": true
  },
  {
    "name": "Badgerville (Cote First Nation 366)",
    "province": "SK",
    "latitude": 51.6439,
    "longitude": -101.9027,
    "isFirstNation": true
  },
  {
    "name": "Fishing Lake First Nation",
    "province": "SK",
    "latitude": 51.8565,
    "longitude": -103.6324,
    "isFirstNation": true
  },
  {
    "name": "Nelson House (Nisichawayasihk Cree Nation)",
    "province": "MB",
    "latitude": 55.783,
    "longitude": -98.8858,
    "isFirstNation": true
  },
  {
    "name": "Seine River First Nation",
    "province": "ON",
    "latitude": 48.7189,
    "longitude": -92.4281,
    "isFirstNation": true
  },
  {
    "name": "Beaver First Nation (Rocky Lane)",
    "province": "AB",
    "latitude": 58.4558,
    "longitude": -116.2748,
    "isFirstNation": true
  },
  {
    "name": "Muskeg Lake Cree Nation 102",
    "province": "SK",
    "latitude": 53.0029,
    "longitude": -106.8741,
    "isFirstNation": true
  },
  {
    "name": "Carcross / Tagish First Nation",
    "province": "YT",
    "latitude": 60.1704,
    "longitude": -134.7038,
    "isFirstNation": true
  },
  {
    "name": "Cold Lake First Nations",
    "province": "AB",
    "latitude": 54.3371,
    "longitude": -110.2362,
    "isFirstNation": true
  },
  {
    "name": "Horse Lake First Nation",
    "province": "AB",
    "latitude": 55.3517,
    "longitude": -119.6937,
    "isFirstNation": true
  },
  {
    "name": "Smith's Landing First Nation",
    "province": "AB",
    "latitude": 59.999,
    "longitude": -111.8781,
    "isFirstNation": true
  },
  {
    "name": "Doig River First Nation",
    "province": "BC",
    "latitude": 56.5779,
    "longitude": -120.4956,
    "isFirstNation": true
  },
  {
    "name": "Lake Babine Nation (Burns Lake)",
    "province": "BC",
    "latitude": 54.2386,
    "longitude": -125.7625,
    "isFirstNation": true
  },
  {
    "name": "Athabasca Chipewyan First Nation",
    "province": "AB",
    "latitude": 58.5482,
    "longitude": -111.0302,
    "isFirstNation": true
  },
  {
    "name": "Da'naxda'xw First Nation",
    "province": "BC",
    "latitude": 50.5965,
    "longitude": -126.5973,
    "isFirstNation": true
  },
  {
    "name": "Huu-ay-aht First Nations",
    "province": "BC",
    "latitude": 48.8021,
    "longitude": -125.1272,
    "isFirstNation": true
  },
  {
    "name": "Kitamaat Village (Haisla Nation)",
    "province": "BC",
    "latitude": 53.9755,
    "longitude": -128.6459,
    "isFirstNation": true
  },
  {
    "name": "Moricetown (Witset First Nation)",
    "province": "BC",
    "latitude": 55.0216,
    "longitude": -127.3309,
    "isFirstNation": true
  },
  {
    "name": "Pelican Rapids (Sapotaweyak Cree Nation)",
    "province": "MB",
    "latitude": 52.7447,
    "longitude": -100.6923,
    "isFirstNation": true
  },
  {
    "name": "Nigigoonsiminikaaning First Nation",
    "province": "ON",
    "latitude": 48.711,
    "longitude": -92.9405,
    "isFirstNation": true
  },
  {
    "name": "?Akisq'nuk First Nation",
    "province": "BC",
    "latitude": 50.4113,
    "longitude": -115.9082,
    "isFirstNation": true
  },
  {
    "name": "T'Sou-ke First Nation",
    "province": "BC",
    "latitude": 48.3846,
    "longitude": -123.6972,
    "isFirstNation": true
  },
  {
    "name": "Grand Rapids (Misipawistik Cree Nation)",
    "province": "MB",
    "latitude": 53.1792,
    "longitude": -99.2569,
    "isFirstNation": true
  },
  {
    "name": "Swan Lake Reserve",
    "province": "MB",
    "latitude": 49.3968,
    "longitude": -98.8409,
    "isFirstNation": true
  },
  {
    "name": "Madawaska Maliseet First Nation",
    "province": "NB",
    "latitude": 47.3622,
    "longitude": -68.3057,
    "isFirstNation": true
  },
  {
    "name": "Beardmore (Animbiigoo Zaagi'igan Anishinaabek)",
    "province": "ON",
    "latitude": 49.6026,
    "longitude": -87.9591,
    "isFirstNation": true
  },
  {
    "name": "Chipewyan Prairie First Nation",
    "province": "AB",
    "latitude": 55.9313,
    "longitude": -110.7243,
    "isFirstNation": true
  },
  {
    "name": "Good Hope Lake (Dease River)",
    "province": "BC",
    "latitude": 59.2947,
    "longitude": -129.2882,
    "isFirstNation": true
  },
  {
    "name": "Oxford House (Bunibonibee Cree Nation)",
    "province": "MB",
    "latitude": 54.9498,
    "longitude": -95.2648,
    "isFirstNation": true
  },
  {
    "name": "Birch Island (Whitefish River)",
    "province": "ON",
    "latitude": 46.0662,
    "longitude": -81.776,
    "isFirstNation": true
  },
  {
    "name": "Odanak (Saint-François-du-Lac)",
    "province": "QC",
    "latitude": 46.0732,
    "longitude": -72.82,
    "isFirstNation": true
  },
  {
    "name": "Loon Lake (Loon River Cree)",
    "province": "AB",
    "latitude": 56.5356,
    "longitude": -115.3956,
    "isFirstNation": true
  },
  {
    "name": "Cook's Ferry (Oregon Jack Creek)",
    "province": "BC",
    "latitude": 50.6194,
    "longitude": -121.3191,
    "isFirstNation": true
  },
  {
    "name": "Wapekeka (Dufresne / Angling Lake)",
    "province": "ON",
    "latitude": 53.8439,
    "longitude": -89.5388,
    "isFirstNation": true
  },
  {
    "name": "Nisga'a Village of Laxgalt'sap (Laxgalts'ap)",
    "province": "BC",
    "latitude": 55.0339,
    "longitude": -129.5794,
    "isFirstNation": true
  },
  {
    "name": "Whitecap Dakota First Nation",
    "province": "SK",
    "latitude": 51.8767,
    "longitude": -106.712,
    "isFirstNation": true
  },
  {
    "name": "Norway House Cree Nation",
    "province": "MB",
    "latitude": 53.9899,
    "longitude": -97.7729,
    "isFirstNation": true
  },
  {
    "name": "K'atlodeeche First Nation",
    "province": "NT",
    "latitude": 60.837,
    "longitude": -115.7547,
    "isFirstNation": true
  },
  {
    "name": "Wabigoon Lake Ojibway Nation",
    "province": "ON",
    "latitude": 49.6255,
    "longitude": -92.5215,
    "isFirstNation": true
  },
  {
    "name": "Biinjitiwaabik Zaaging Anishinaabek (Macdiarmid)",
    "province": "ON",
    "latitude": 49.4361,
    "longitude": -88.1299,
    "isFirstNation": true
  },
  {
    "name": "Cayoose Creek (T'it'q'et)",
    "province": "BC",
    "latitude": 50.6743,
    "longitude": -121.9341,
    "isFirstNation": true
  },
  {
    "name": "Grassy Narrows First Nation",
    "province": "ON",
    "latitude": 50.1538,
    "longitude": -93.992,
    "isFirstNation": true
  },
  {
    "name": "Dimock Creek (Micmacs of Gesgapegiag)",
    "province": "QC",
    "latitude": 48.2021,
    "longitude": -65.9212,
    "isFirstNation": true
  },
  {
    "name": "Innu Takuaikan Uashat Mak Mani-Utenam",
    "province": "QC",
    "latitude": 50.2261,
    "longitude": -66.3996,
    "isFirstNation": true
  },
  {
    "name": "Woodland Cree First Nation",
    "province": "AB",
    "latitude": 56.4724,
    "longitude": -116.4018,
    "isFirstNation": true
  },
  {
    "name": "Burrard (Tsleil-Waututh Nation)",
    "province": "BC",
    "latitude": 49.3106,
    "longitude": -122.9879,
    "isFirstNation": true
  },
  {
    "name": "Kluskus (Lhoosk'uz Dene Nation)",
    "province": "BC",
    "latitude": 53.0873,
    "longitude": -124.4902,
    "isFirstNation": true
  },
  {
    "name": "Sechelt Indian Government District (Sechelt)",
    "province": "BC",
    "latitude": 49.4739,
    "longitude": -123.75,
    "isFirstNation": true
  },
  {
    "name": "Stellat'en First Nation",
    "province": "BC",
    "latitude": 54.0638,
    "longitude": -124.9111,
    "isFirstNation": true
  },
  {
    "name": "Sunnyside (Tl'azt'en Nation)",
    "province": "BC",
    "latitude": 54.6559,
    "longitude": -124.7236,
    "isFirstNation": true
  },
  {
    "name": "West Moberly First Nations",
    "province": "BC",
    "latitude": 55.8279,
    "longitude": -121.8525,
    "isFirstNation": true
  },
  {
    "name": "Buffalo Point First Nation",
    "province": "MB",
    "latitude": 49.0123,
    "longitude": -95.2379,
    "isFirstNation": true
  },
  {
    "name": "Chemawawin Cree Nation (Easterville)",
    "province": "MB",
    "latitude": 53.103,
    "longitude": -99.8076,
    "isFirstNation": true
  },
  {
    "name": "Chapleau Cree Nation",
    "province": "ON",
    "latitude": 47.8137,
    "longitude": -83.4461,
    "isFirstNation": true
  },
  {
    "name": "Weagamow Lake (North Caribou Lake)",
    "province": "ON",
    "latitude": 52.9483,
    "longitude": -91.347,
    "isFirstNation": true
  },
  {
    "name": "Oujé-Bougoumou Cree Nation",
    "province": "QC",
    "latitude": 49.9235,
    "longitude": -74.8198,
    "isFirstNation": true
  },
  {
    "name": "Birch Narrows First Nation",
    "province": "SK",
    "latitude": 56.4722,
    "longitude": -108.6889,
    "isFirstNation": true
  },
  {
    "name": "George Gordon First Nation",
    "province": "SK",
    "latitude": 51.2963,
    "longitude": -104.302,
    "isFirstNation": true
  },
  {
    "name": "Pasqua First Nation 79",
    "province": "SK",
    "latitude": 50.7388,
    "longitude": -103.9908,
    "isFirstNation": true
  },
  {
    "name": "Nisga'a Village of Gitwinksihlkw",
    "province": "BC",
    "latitude": 55.1925,
    "longitude": -129.2209,
    "isFirstNation": true
  },
  {
    "name": "Nisga'a Village of New Aiyansh",
    "province": "BC",
    "latitude": 55.2055,
    "longitude": -129.0787,
    "isFirstNation": true
  },
  {
    "name": "Garden Hill First Nations",
    "province": "MB",
    "latitude": 53.8728,
    "longitude": -94.6535,
    "isFirstNation": true
  },
  {
    "name": "Kapawe'no First Nation",
    "province": "AB",
    "latitude": 55.5486,
    "longitude": -116.1549,
    "isFirstNation": true
  },
  {
    "name": "Mikisew Cree First Nation",
    "province": "AB",
    "latitude": 58.7113,
    "longitude": -111.1833,
    "isFirstNation": true
  },
  {
    "name": "Sturgeon Lake Cree Nation",
    "province": "AB",
    "latitude": 55.0676,
    "longitude": -117.4181,
    "isFirstNation": true
  },
  {
    "name": "?Esdilagh First Nation",
    "province": "BC",
    "latitude": 52.5628,
    "longitude": -122.4968,
    "isFirstNation": true
  },
  {
    "name": "Anama Bay (Dauphin River)",
    "province": "MB",
    "latitude": 51.9632,
    "longitude": -98.0654,
    "isFirstNation": true
  },
  {
    "name": "Micmac (SIPEKNE'KATIK)",
    "province": "NS",
    "latitude": 45.0952,
    "longitude": -63.4889,
    "isFirstNation": true
  },
  {
    "name": "Zhiibaahaasing First Nation",
    "province": "ON",
    "latitude": 45.95,
    "longitude": -82.8695,
    "isFirstNation": true
  },
  {
    "name": "Duncan's First Nation",
    "province": "AB",
    "latitude": 56.1021,
    "longitude": -117.865,
    "isFirstNation": true
  },
  {
    "name": "Saint-François-du-Lac",
    "province": "QC",
    "latitude": 46.0672,
    "longitude": -72.8269,
    "isFirstNation": false
  },
  {
    "name": "Fort Nelson First Nation",
    "province": "BC",
    "latitude": 58.7701,
    "longitude": -122.6597,
    "isFirstNation": true
  },
  {
    "name": "Mount Currie (Lil'wat Nation)",
    "province": "BC",
    "latitude": 50.3182,
    "longitude": -122.7213,
    "isFirstNation": true
  },
  {
    "name": "Opaskwayak Cree Nation (The Pas)",
    "province": "MB",
    "latitude": 53.8377,
    "longitude": -101.2714,
    "isFirstNation": true
  },
  {
    "name": "Liidlii Kue First Nation",
    "province": "NT",
    "latitude": 61.8178,
    "longitude": -121.3137,
    "isFirstNation": true
  },
  {
    "name": "Carlyle Lake Resort (White Bear)",
    "province": "SK",
    "latitude": 49.7518,
    "longitude": -102.2704,
    "isFirstNation": true
  },
  {
    "name": "Flying Dust First Nation",
    "province": "SK",
    "latitude": 54.1354,
    "longitude": -108.4043,
    "isFirstNation": true
  },
  {
    "name": "Peepeekisis Cree Nation 81",
    "province": "SK",
    "latitude": 50.8662,
    "longitude": -103.3359,
    "isFirstNation": true
  },
  {
    "name": "Dawson (Tr'ondëk Hwëch'in)",
    "province": "YT",
    "latitude": 64.0649,
    "longitude": -139.4312,
    "isFirstNation": true
  },
  {
    "name": "Kwanlin Dun First Nation",
    "province": "YT",
    "latitude": 60.7191,
    "longitude": -135.1082,
    "isFirstNation": true
  },
  {
    "name": "Saddle Lake Cree Nation",
    "province": "AB",
    "latitude": 53.9694,
    "longitude": -111.6905,
    "isFirstNation": true
  },
  {
    "name": "Beaver Lake Cree Nation",
    "province": "AB",
    "latitude": 54.6809,
    "longitude": -111.9074,
    "isFirstNation": true
  },
  {
    "name": "Saik'uz First Nation",
    "province": "BC",
    "latitude": 53.9434,
    "longitude": -124.114,
    "isFirstNation": true
  },
  {
    "name": "Pinaymootang First Nation",
    "province": "MB",
    "latitude": 51.5738,
    "longitude": -98.6837,
    "isFirstNation": true
  },
  {
    "name": "Pehdzeh Ki First Nation",
    "province": "NT",
    "latitude": 63.1843,
    "longitude": -123.3606,
    "isFirstNation": true
  },
  {
    "name": "West Point First Nation",
    "province": "NT",
    "latitude": 60.8547,
    "longitude": -115.745,
    "isFirstNation": true
  },
  {
    "name": "Nemiscau (Cree Nation of Nemaska)",
    "province": "QC",
    "latitude": 51.6853,
    "longitude": -76.2551,
    "isFirstNation": true
  },
  {
    "name": "Première nation de Whapmagoostui",
    "province": "QC",
    "latitude": 55.276,
    "longitude": -77.756,
    "isFirstNation": true
  },
  {
    "name": "Thunderchild First Nation",
    "province": "SK",
    "latitude": 53.4801,
    "longitude": -108.8746,
    "isFirstNation": true
  },
  {
    "name": "Red Bluff (Lhtako Dene Nation)",
    "province": "BC",
    "latitude": 52.9549,
    "longitude": -122.4511,
    "isFirstNation": true
  },
  {
    "name": "Union Bar First Nation",
    "province": "BC",
    "latitude": 49.4352,
    "longitude": -121.4381,
    "isFirstNation": true
  },
  {
    "name": "Couchiching First Nation",
    "province": "ON",
    "latitude": 48.6343,
    "longitude": -93.3598,
    "isFirstNation": true
  },
  {
    "name": "Ginoogaming First Nation",
    "province": "ON",
    "latitude": 49.7579,
    "longitude": -86.5442,
    "isFirstNation": true
  },
  {
    "name": "Timiskaming First Nation",
    "province": "QC",
    "latitude": 47.6072,
    "longitude": -79.4697,
    "isFirstNation": true
  },
  {
    "name": "One Arrow First Nation",
    "province": "SK",
    "latitude": 52.7405,
    "longitude": -106.0292,
    "isFirstNation": true
  },
  {
    "name": "Onion Lake Cree Nation",
    "province": "SK",
    "latitude": 53.7126,
    "longitude": -109.964,
    "isFirstNation": true
  },
  {
    "name": "Hupacasath First Nation",
    "province": "BC",
    "latitude": 49.2658,
    "longitude": -124.8251,
    "isFirstNation": true
  },
  {
    "name": "Kwikwetlem First Nation",
    "province": "BC",
    "latitude": 49.2302,
    "longitude": -122.806,
    "isFirstNation": true
  },
  {
    "name": "Metlakatla First Nation",
    "province": "BC",
    "latitude": 54.3369,
    "longitude": -130.4442,
    "isFirstNation": true
  },
  {
    "name": "Pacheedaht First Nation",
    "province": "BC",
    "latitude": 48.5768,
    "longitude": -124.4077,
    "isFirstNation": true
  },
  {
    "name": "Skawahlook First Nation",
    "province": "BC",
    "latitude": 49.3568,
    "longitude": -121.6062,
    "isFirstNation": true
  },
  {
    "name": "Snuneymuxw First Nation",
    "province": "BC",
    "latitude": 49.1517,
    "longitude": -123.9303,
    "isFirstNation": true
  },
  {
    "name": "Tsawwassen First Nation",
    "province": "BC",
    "latitude": 49.0379,
    "longitude": -123.0977,
    "isFirstNation": true
  },
  {
    "name": "Pauingassi First Nation",
    "province": "MB",
    "latitude": 52.1576,
    "longitude": -95.3741,
    "isFirstNation": true
  },
  {
    "name": "Shamattawa First Nation",
    "province": "MB",
    "latitude": 55.8728,
    "longitude": -92.0989,
    "isFirstNation": true
  },
  {
    "name": "Wasagamack First Nation",
    "province": "MB",
    "latitude": 53.8954,
    "longitude": -94.9273,
    "isFirstNation": true
  },
  {
    "name": "Alderville First Nation",
    "province": "ON",
    "latitude": 44.1828,
    "longitude": -78.0633,
    "isFirstNation": true
  },
  {
    "name": "Batchewana First Nation",
    "province": "ON",
    "latitude": 46.5285,
    "longitude": -84.2615,
    "isFirstNation": true
  },
  {
    "name": "Neskantaga First Nation",
    "province": "ON",
    "latitude": 52.2046,
    "longitude": -88.0114,
    "isFirstNation": true
  },
  {
    "name": "Wabauskang First Nation",
    "province": "ON",
    "latitude": 50.3795,
    "longitude": -93.1765,
    "isFirstNation": true
  },
  {
    "name": "La Romaine (Montagnais de Unamen Shipu)",
    "province": "QC",
    "latitude": 50.2171,
    "longitude": -60.6654,
    "isFirstNation": true
  },
  {
    "name": "Naskapi Nation of Kawawachikamach",
    "province": "QC",
    "latitude": 54.8636,
    "longitude": -66.762,
    "isFirstNation": true
  },
  {
    "name": "Wendake (Nation Huronne Wendat)",
    "province": "QC",
    "latitude": 46.8626,
    "longitude": -71.3572,
    "isFirstNation": true
  },
  {
    "name": "Saulteau First Nations",
    "province": "BC",
    "latitude": 55.8522,
    "longitude": -121.653,
    "isFirstNation": true
  },
  {
    "name": "Metepenagiag Mi'kmaq Nation",
    "province": "NB",
    "latitude": 46.9424,
    "longitude": -65.8264,
    "isFirstNation": true
  },
  {
    "name": "Nipissing First Nation",
    "province": "ON",
    "latitude": 46.3234,
    "longitude": -79.8739,
    "isFirstNation": true
  },
  {
    "name": "Shawanaga First Nation",
    "province": "ON",
    "latitude": 45.514,
    "longitude": -80.2735,
    "isFirstNation": true
  },
  {
    "name": "Wabaseemoong Independent Nations",
    "province": "ON",
    "latitude": 50.1299,
    "longitude": -94.9432,
    "isFirstNation": true
  },
  {
    "name": "Wahgoshig First Nation",
    "province": "ON",
    "latitude": 48.5501,
    "longitude": -79.9744,
    "isFirstNation": true
  },
  {
    "name": "Whitefish Bay (Naotkamegwanning)",
    "province": "ON",
    "latitude": 49.409,
    "longitude": -93.9588,
    "isFirstNation": true
  },
  {
    "name": "The Key First Nation",
    "province": "SK",
    "latitude": 51.7829,
    "longitude": -102.129,
    "isFirstNation": true
  },
  {
    "name": "Little Buffalo (Lubicon Lake)",
    "province": "AB",
    "latitude": 56.4484,
    "longitude": -116.1174,
    "isFirstNation": true
  },
  {
    "name": "Sawridge First Nation",
    "province": "AB",
    "latitude": 55.2976,
    "longitude": -114.8397,
    "isFirstNation": true
  },
  {
    "name": "Sunchild First Nation",
    "province": "AB",
    "latitude": 52.6998,
    "longitude": -115.34,
    "isFirstNation": true
  },
  {
    "name": "Klahoose First Nation",
    "province": "BC",
    "latitude": 50.1258,
    "longitude": -124.9213,
    "isFirstNation": true
  },
  {
    "name": "Kwantlen First Nation",
    "province": "BC",
    "latitude": 49.1714,
    "longitude": -122.5655,
    "isFirstNation": true
  },
  {
    "name": "Nisga'a Village of Gingolx",
    "province": "BC",
    "latitude": 54.9944,
    "longitude": -129.9573,
    "isFirstNation": true
  },
  {
    "name": "Qualicum First Nation",
    "province": "BC",
    "latitude": 49.397,
    "longitude": -124.6158,
    "isFirstNation": true
  },
  {
    "name": "Quatsino First Nation",
    "province": "BC",
    "latitude": 50.6141,
    "longitude": -127.5713,
    "isFirstNation": true
  },
  {
    "name": "Sliammon (Tla'amin Nation)",
    "province": "BC",
    "latitude": 49.9006,
    "longitude": -124.6174,
    "isFirstNation": true
  },
  {
    "name": "Ucluelet First Nation",
    "province": "BC",
    "latitude": 48.9364,
    "longitude": -125.526,
    "isFirstNation": true
  },
  {
    "name": "Westbank First Nation",
    "province": "BC",
    "latitude": 49.8345,
    "longitude": -119.6158,
    "isFirstNation": true
  },
  {
    "name": "Yekooche First Nation",
    "province": "BC",
    "latitude": 54.5979,
    "longitude": -125.0822,
    "isFirstNation": true
  },
  {
    "name": "Oromocto First Nation",
    "province": "NB",
    "latitude": 45.8534,
    "longitude": -66.4641,
    "isFirstNation": true
  },
  {
    "name": "Glooscap First Nation",
    "province": "NS",
    "latitude": 45.0418,
    "longitude": -64.235,
    "isFirstNation": true
  },
  {
    "name": "Wha Ti First Nation",
    "province": "NT",
    "latitude": 63.1445,
    "longitude": -117.2688,
    "isFirstNation": true
  },
  {
    "name": "Hiawatha First Nation",
    "province": "ON",
    "latitude": 44.1731,
    "longitude": -78.2122,
    "isFirstNation": true
  },
  {
    "name": "Migisi Sahgaigan (Eagle Lake)",
    "province": "ON",
    "latitude": 49.7382,
    "longitude": -93.0571,
    "isFirstNation": true
  },
  {
    "name": "Shoal Lake 40",
    "province": "ON",
    "latitude": 49.614,
    "longitude": -95.1357,
    "isFirstNation": true
  },
  {
    "name": "Kebaowek First Nation",
    "province": "QC",
    "latitude": 46.7856,
    "longitude": -78.9851,
    "isFirstNation": true
  },
  {
    "name": "Nation Anishnabe du Lac Simon",
    "province": "QC",
    "latitude": 48.0581,
    "longitude": -77.3526,
    "isFirstNation": true
  },
  {
    "name": "Muskoday First Nation",
    "province": "SK",
    "latitude": 53.0884,
    "longitude": -105.4906,
    "isFirstNation": true
  },
  {
    "name": "Sakimay First Nations",
    "province": "SK",
    "latitude": 50.5276,
    "longitude": -102.7941,
    "isFirstNation": true
  },
  {
    "name": "Mississaugas of the Credit (New Credit)",
    "province": "ON",
    "latitude": 43,
    "longitude": -80.0951,
    "isFirstNation": true
  },
  {
    "name": "Tetlit Gwich'in (Fort McPherson)",
    "province": "NT",
    "latitude": 67.4375,
    "longitude": -134.886,
    "isFirstNation": true
  },
  {
    "name": "Nanoose First Nation",
    "province": "BC",
    "latitude": 49.2541,
    "longitude": -124.128,
    "isFirstNation": true
  },
  {
    "name": "Squiala First Nation",
    "province": "BC",
    "latitude": 49.158,
    "longitude": -121.9794,
    "isFirstNation": true
  },
  {
    "name": "Takla Landing (Takla Nation)",
    "province": "BC",
    "latitude": 55.4824,
    "longitude": -125.9753,
    "isFirstNation": true
  },
  {
    "name": "Tsawout First Nation",
    "province": "BC",
    "latitude": 48.592,
    "longitude": -123.3907,
    "isFirstNation": true
  },
  {
    "name": "Gambler First Nation",
    "province": "MB",
    "latitude": 50.5947,
    "longitude": -101.3824,
    "isFirstNation": true
  },
  {
    "name": "Northwest Bay (Naicatchewenin)",
    "province": "ON",
    "latitude": 48.8595,
    "longitude": -93.5731,
    "isFirstNation": true
  },
  {
    "name": "Old Massett Village Council",
    "province": "BC",
    "latitude": 54.0344,
    "longitude": -132.175,
    "isFirstNation": true
  },
  {
    "name": "Namgis First Nation",
    "province": "BC",
    "latitude": 50.596,
    "longitude": -126.9353,
    "isFirstNation": true
  },
  {
    "name": "Peters First Nation",
    "province": "BC",
    "latitude": 49.2939,
    "longitude": -121.6579,
    "isFirstNation": true
  },
  {
    "name": "Simpcw First Nation",
    "province": "BC",
    "latitude": 51.3169,
    "longitude": -120.149,
    "isFirstNation": true
  },
  {
    "name": "Skookumchuck (Skatin Nations)",
    "province": "BC",
    "latitude": 49.9383,
    "longitude": -122.4104,
    "isFirstNation": true
  },
  {
    "name": "Deline First Nation",
    "province": "NT",
    "latitude": 65.1886,
    "longitude": -123.4255,
    "isFirstNation": true
  },
  {
    "name": "Gameti First Nation",
    "province": "NT",
    "latitude": 64.1129,
    "longitude": -117.3524,
    "isFirstNation": true
  },
  {
    "name": "Christian Island (Beausoleil)",
    "province": "ON",
    "latitude": 44.8212,
    "longitude": -80.1751,
    "isFirstNation": true
  },
  {
    "name": "Chippewas of Georgina Island",
    "province": "ON",
    "latitude": 44.3728,
    "longitude": -79.3129,
    "isFirstNation": true
  },
  {
    "name": "Sioux Valley Dakota Nation",
    "province": "MB",
    "latitude": 49.8591,
    "longitude": -100.4848,
    "isFirstNation": true
  },
  {
    "name": "Cross Lake Band of Indians",
    "province": "MB",
    "latitude": 54.6215,
    "longitude": -97.7884,
    "isFirstNation": true
  },
  {
    "name": "Alexis Nakota Sioux Nation",
    "province": "AB",
    "latitude": 53.7289,
    "longitude": -114.487,
    "isFirstNation": true
  },
  {
    "name": "Alkali Lake (Esk'etemc)",
    "province": "BC",
    "latitude": 51.7887,
    "longitude": -122.2364,
    "isFirstNation": true
  },
  {
    "name": "Bull Harbour (Tlatlasikwala)",
    "province": "BC",
    "latitude": 50.9225,
    "longitude": -127.94,
    "isFirstNation": true
  },
  {
    "name": "Nazko First Nation",
    "province": "BC",
    "latitude": 52.9413,
    "longitude": -123.5807,
    "isFirstNation": true
  },
  {
    "name": "Sumas First Nation",
    "province": "BC",
    "latitude": 49.0553,
    "longitude": -122.1946,
    "isFirstNation": true
  },
  {
    "name": "Paqtnkek Mi'kmaw Nation",
    "province": "NS",
    "latitude": 45.6016,
    "longitude": -61.7383,
    "isFirstNation": true
  },
  {
    "name": "Balmertown (McDowell Lake)",
    "province": "ON",
    "latitude": 51.0595,
    "longitude": -93.7477,
    "isFirstNation": true
  },
  {
    "name": "Kingfisher Lake (Kingfisher)",
    "province": "ON",
    "latitude": 53.0291,
    "longitude": -89.8265,
    "isFirstNation": true
  },
  {
    "name": "Mohawks of the Bay of Quinte",
    "province": "ON",
    "latitude": 44.1869,
    "longitude": -77.1434,
    "isFirstNation": true
  },
  {
    "name": "La Nation Micmac de Gespeg",
    "province": "QC",
    "latitude": 48.918,
    "longitude": -64.6233,
    "isFirstNation": true
  },
  {
    "name": "Obedjiwan (Atikamekw d'Opitciwan)",
    "province": "QC",
    "latitude": 48.6593,
    "longitude": -74.938,
    "isFirstNation": true
  },
  {
    "name": "Hazelton (Gitanmaax / 'Ksan)",
    "province": "BC",
    "latitude": 55.2552,
    "longitude": -127.677,
    "isFirstNation": true
  },
  {
    "name": "Enoch Cree Nation 440",
    "province": "AB",
    "latitude": 53.502,
    "longitude": -113.7555,
    "isFirstNation": true
  },
  {
    "name": "Oweekeno (Wuikinuxv Nation)",
    "province": "BC",
    "latitude": 51.6801,
    "longitude": -127.2321,
    "isFirstNation": true
  },
  {
    "name": "Yale First Nation",
    "province": "BC",
    "latitude": 49.5622,
    "longitude": -121.426,
    "isFirstNation": true
  },
  {
    "name": "Wulastukw (French Village / Kingsclear)",
    "province": "NB",
    "latitude": 45.9498,
    "longitude": -66.8509,
    "isFirstNation": true
  },
  {
    "name": "Chippewas of Kettle and Stony Point",
    "province": "ON",
    "latitude": 43.1784,
    "longitude": -81.9988,
    "isFirstNation": true
  },
  {
    "name": "Munsee-Delaware Nation",
    "province": "ON",
    "latitude": 42.788,
    "longitude": -81.4683,
    "isFirstNation": true
  },
  {
    "name": "Oneida Nation of the Thames",
    "province": "ON",
    "latitude": 42.8194,
    "longitude": -81.4098,
    "isFirstNation": true
  },
  {
    "name": "Kitkatla (Gitxaala Nation)",
    "province": "BC",
    "latitude": 53.7964,
    "longitude": -130.4331,
    "isFirstNation": true
  },
  {
    "name": "Indian Village (Woodstock)",
    "province": "NB",
    "latitude": 46.1093,
    "longitude": -67.5773,
    "isFirstNation": true
  },
  {
    "name": "Tsiigehtchic (Gwichya Gwich'in)",
    "province": "NT",
    "latitude": 67.4419,
    "longitude": -133.7435,
    "isFirstNation": true
  },
  {
    "name": "Star Blanket Cree Nation",
    "province": "SK",
    "latitude": 50.9624,
    "longitude": -103.3042,
    "isFirstNation": true
  },
  {
    "name": "Atikameg (Whitefish Lake)",
    "province": "AB",
    "latitude": 55.9189,
    "longitude": -115.6481,
    "isFirstNation": true
  },
  {
    "name": "Campbell River 11",
    "province": "BC",
    "latitude": 50.0317,
    "longitude": -125.2479,
    "isFirstNation": true
  },
  {
    "name": "Gwa'Sala-Nakwaxda'xw",
    "province": "BC",
    "latitude": 50.7342,
    "longitude": -127.4964,
    "isFirstNation": true
  },
  {
    "name": "Sugarcane (Williams Lake)",
    "province": "BC",
    "latitude": 52.1083,
    "longitude": -121.9939,
    "isFirstNation": true
  },
  {
    "name": "Telegraph Creek (Tahltan)",
    "province": "BC",
    "latitude": 57.9069,
    "longitude": -131.1604,
    "isFirstNation": true
  },
  {
    "name": "Tk'emlúps te Secwépemc",
    "province": "BC",
    "latitude": 50.6789,
    "longitude": -120.2942,
    "isFirstNation": true
  },
  {
    "name": "Calstock (Constance Lake)",
    "province": "ON",
    "latitude": 49.8063,
    "longitude": -84.1435,
    "isFirstNation": true
  },
  {
    "name": "Ojibway Nation of Saugeen",
    "province": "ON",
    "latitude": 50.4212,
    "longitude": -90.6584,
    "isFirstNation": true
  },
  {
    "name": "Wunnummin Lake (Wunnumin)",
    "province": "ON",
    "latitude": 52.9341,
    "longitude": -89.2963,
    "isFirstNation": true
  },
  {
    "name": "Cree Nation of Mistissini",
    "province": "QC",
    "latitude": 50.415,
    "longitude": -73.8643,
    "isFirstNation": true
  },
  {
    "name": "Mingan (Les Innus de Ekuanitshit)",
    "province": "QC",
    "latitude": 50.2915,
    "longitude": -64.03,
    "isFirstNation": true
  },
  {
    "name": "Kinistin Saulteaux Nation",
    "province": "SK",
    "latitude": 52.6097,
    "longitude": -104.2191,
    "isFirstNation": true
  },
  {
    "name": "Siksika Nation (Gleichen)",
    "province": "AB",
    "latitude": 50.8591,
    "longitude": -113.0508,
    "isFirstNation": true
  },
  {
    "name": "Brocket (Piikani Nation)",
    "province": "AB",
    "latitude": 49.5487,
    "longitude": -113.749,
    "isFirstNation": true
  },
  {
    "name": "Cheslatta Carrier Nation",
    "province": "BC",
    "latitude": 54.0025,
    "longitude": -125.7141,
    "isFirstNation": true
  },
  {
    "name": "Shxwhá:y Village",
    "province": "BC",
    "latitude": 49.169,
    "longitude": -121.9889,
    "isFirstNation": true
  },
  {
    "name": "Stone (Yunesit'in Government)",
    "province": "BC",
    "latitude": 51.9268,
    "longitude": -123.1399,
    "isFirstNation": true
  },
  {
    "name": "Cree Nation of Chisasibi",
    "province": "QC",
    "latitude": 53.7907,
    "longitude": -78.8964,
    "isFirstNation": true
  },
  {
    "name": "Tataskweyak Cree Nation",
    "province": "MB",
    "latitude": 56.2445,
    "longitude": -96.0978,
    "isFirstNation": true
  },
  {
    "name": "Kejick Bay (Lac Seul)",
    "province": "ON",
    "latitude": 50.2926,
    "longitude": -92.3003,
    "isFirstNation": true
  },
  {
    "name": "Conseil des Atikamekw de Wemotaci",
    "province": "QC",
    "latitude": 47.9026,
    "longitude": -73.7873,
    "isFirstNation": true
  },
  {
    "name": "Cree Nation of Wemindji",
    "province": "QC",
    "latitude": 53.0002,
    "longitude": -78.8077,
    "isFirstNation": true
  },
  {
    "name": "Arcadia (Sucker Creek)",
    "province": "AB",
    "latitude": 55.4042,
    "longitude": -116.1543,
    "isFirstNation": true
  },
  {
    "name": "Listuguj Mi'gmaq Government",
    "province": "QC",
    "latitude": 48.0129,
    "longitude": -66.7051,
    "isFirstNation": true
  },
  {
    "name": "Wahpeton Dakota Nation",
    "province": "SK",
    "latitude": 53.2766,
    "longitude": -105.897,
    "isFirstNation": true
  },
  {
    "name": "Onondaga Clear Sky (Tuscarora)",
    "province": "ON",
    "latitude": 43.0164,
    "longitude": -80.0306,
    "isFirstNation": true
  },
  {
    "name": "Ulkatcho (Anahim Lake)",
    "province": "BC",
    "latitude": 52.4673,
    "longitude": -125.3067,
    "isFirstNation": true
  },
  {
    "name": "Driftpile Cree Nation",
    "province": "AB",
    "latitude": 55.3432,
    "longitude": -115.7825,
    "isFirstNation": true
  },
  {
    "name": "Taykwa Tagamou Nation",
    "province": "ON",
    "latitude": 49.0029,
    "longitude": -80.833,
    "isFirstNation": true
  },
  {
    "name": "Clearwater River Dene",
    "province": "SK",
    "latitude": 56.5282,
    "longitude": -109.4998,
    "isFirstNation": true
  },
  {
    "name": "Bigstone Cree Nation",
    "province": "AB",
    "latitude": 55.9464,
    "longitude": -113.783,
    "isFirstNation": true
  },
  {
    "name": "Lake St. Martin",
    "province": "MB",
    "latitude": 51.7485,
    "longitude": -98.4352,
    "isFirstNation": true
  },
  {
    "name": "Anishinabe of Wauzhushk Onigum",
    "province": "ON",
    "latitude": 49.7077,
    "longitude": -94.4464,
    "isFirstNation": true
  },
  {
    "name": "Lheidli T'enneh (Shelley)",
    "province": "BC",
    "latitude": 54.0088,
    "longitude": -122.6143,
    "isFirstNation": true
  },
  {
    "name": "N'Quatqua (D'Arcy)",
    "province": "BC",
    "latitude": 50.5501,
    "longitude": -122.4846,
    "isFirstNation": true
  },
  {
    "name": "Walker Mohawk (Lower Mohawk)",
    "province": "ON",
    "latitude": 43.0476,
    "longitude": -80.1153,
    "isFirstNation": true
  },
  {
    "name": "Hesquiaht (Hot Springs Cove)",
    "province": "BC",
    "latitude": 49.3684,
    "longitude": -126.2721,
    "isFirstNation": true
  },
  {
    "name": "Mohawks of Kahnawá:ke",
    "province": "QC",
    "latitude": 45.4139,
    "longitude": -73.6763,
    "isFirstNation": true
  },
  {
    "name": "Kehewin Cree Nation",
    "province": "AB",
    "latitude": 54.1161,
    "longitude": -110.8571,
    "isFirstNation": true
  },
  {
    "name": "Tsuut'ina Nation",
    "province": "AB",
    "latitude": 50.9484,
    "longitude": -114.1459,
    "isFirstNation": true
  },
  {
    "name": "Little Shuswap Lake",
    "province": "BC",
    "latitude": 50.8702,
    "longitude": -119.5997,
    "isFirstNation": true
  },
  {
    "name": "Whispering Pines / Clinton",
    "province": "BC",
    "latitude": 50.9867,
    "longitude": -120.2408,
    "isFirstNation": true
  },
  {
    "name": "Aundeck-Omni-Kaning",
    "province": "ON",
    "latitude": 45.96,
    "longitude": -81.9957,
    "isFirstNation": true
  },
  {
    "name": "Scowlitz (Sq'éwlets)",
    "province": "BC",
    "latitude": 49.2359,
    "longitude": -122.0025,
    "isFirstNation": true
  },
  {
    "name": "Taku River Tlingit",
    "province": "BC",
    "latitude": 59.5058,
    "longitude": -133.6587,
    "isFirstNation": true
  },
  {
    "name": "Pukatawagan (Mathias Colomb)",
    "province": "MB",
    "latitude": 55.7421,
    "longitude": -101.3169,
    "isFirstNation": true
  },
  {
    "name": "Bingwi Neyaashi Anishinaabek",
    "province": "ON",
    "latitude": 49.4618,
    "longitude": -88.1339,
    "isFirstNation": true
  },
  {
    "name": "Slate Falls Nation",
    "province": "ON",
    "latitude": 51.1494,
    "longitude": -91.6182,
    "isFirstNation": true
  },
  {
    "name": "Binche Whut'en (Pinchi)",
    "province": "BC",
    "latitude": 54.5662,
    "longitude": -124.4942,
    "isFirstNation": true
  },
  {
    "name": "Assumption (Dene Tha')",
    "province": "AB",
    "latitude": 58.6982,
    "longitude": -118.6913,
    "isFirstNation": true
  },
  {
    "name": "North Spirit Lake",
    "province": "ON",
    "latitude": 52.5094,
    "longitude": -93.0146,
    "isFirstNation": true
  },
  {
    "name": "Bande des Innus de Pessamit",
    "province": "QC",
    "latitude": 48.9383,
    "longitude": -68.6382,
    "isFirstNation": true
  },
  {
    "name": "Kitchenuhmaykoosib Inninuwug (Big Trout Lake)",
    "province": "ON",
    "latitude": 53.8241,
    "longitude": -89.8862,
    "isFirstNation": true
  },
  {
    "name": "Tallcree Tribal Government",
    "province": "AB",
    "latitude": 58.0644,
    "longitude": -115.6182,
    "isFirstNation": true
  },
  {
    "name": "Animakee Wa Zhing 37",
    "province": "ON",
    "latitude": 49.3947,
    "longitude": -93.973,
    "isFirstNation": true
  },
  {
    "name": "Muskrat Dam Lake",
    "province": "ON",
    "latitude": 53.404,
    "longitude": -91.7799,
    "isFirstNation": true
  },
  {
    "name": "Northwest Angle 33",
    "province": "ON",
    "latitude": 49.3631,
    "longitude": -95.0159,
    "isFirstNation": true
  },
  {
    "name": "Upper Similkameen (Hedley)",
    "province": "BC",
    "latitude": 49.3559,
    "longitude": -120.0787,
    "isFirstNation": true
  },
  {
    "name": "Hagwilget Village",
    "province": "BC",
    "latitude": 55.2535,
    "longitude": -127.6003,
    "isFirstNation": true
  },
  {
    "name": "Nak'azdli Whut'en",
    "province": "BC",
    "latitude": 54.4385,
    "longitude": -124.2502,
    "isFirstNation": true
  },
  {
    "name": "Red Sucker Lake",
    "province": "MB",
    "latitude": 54.1562,
    "longitude": -93.5689,
    "isFirstNation": true
  },
  {
    "name": "Anishnaabeg of Naongashiing",
    "province": "ON",
    "latitude": 49.1247,
    "longitude": -94.3118,
    "isFirstNation": true
  },
  {
    "name": "Montagnais de Pakua Shipi",
    "province": "QC",
    "latitude": 51.2277,
    "longitude": -58.6714,
    "isFirstNation": true
  },
  {
    "name": "Tobacco Plains (Grasmere)",
    "province": "BC",
    "latitude": 49.0933,
    "longitude": -115.0819,
    "isFirstNation": true
  },
  {
    "name": "Tl'etinqox Government",
    "province": "BC",
    "latitude": 52.017,
    "longitude": -123.1764,
    "isFirstNation": true
  },
  {
    "name": "Wanipigow (Hollow Water)",
    "province": "MB",
    "latitude": 51.1924,
    "longitude": -96.3023,
    "isFirstNation": true
  },
  {
    "name": "Kitigan Zibi Anishinabeg",
    "province": "QC",
    "latitude": 46.3631,
    "longitude": -75.9828,
    "isFirstNation": true
  },
  {
    "name": "Les Atikamekw de Manawan",
    "province": "QC",
    "latitude": 47.2209,
    "longitude": -74.3881,
    "isFirstNation": true
  },
  {
    "name": "Beardy's and Okemasis",
    "province": "SK",
    "latitude": 52.8374,
    "longitude": -106.311,
    "isFirstNation": true
  },
  {
    "name": "Mistawasis Nêhiyawak",
    "province": "SK",
    "latitude": 53.1749,
    "longitude": -106.8066,
    "isFirstNation": true
  },
  {
    "name": "Chehalis (Sts'ailes)",
    "province": "BC",
    "latitude": 49.2985,
    "longitude": -121.9142,
    "isFirstNation": true
  },
  {
    "name": "Kwaw-kwaw-Apilt",
    "province": "BC",
    "latitude": 49.1668,
    "longitude": -121.9752,
    "isFirstNation": true
  },
  {
    "name": "Nee-Tahi-Buhn",
    "province": "BC",
    "latitude": 53.933,
    "longitude": -125.6674,
    "isFirstNation": true
  },
  {
    "name": "Atikameksheng Anishnawbek",
    "province": "ON",
    "latitude": 46.398,
    "longitude": -81.1788,
    "isFirstNation": true
  },
  {
    "name": "Chippawa Hill (Saugeen)",
    "province": "ON",
    "latitude": 44.513,
    "longitude": -81.3287,
    "isFirstNation": true
  },
  {
    "name": "Kasabonika Lake",
    "province": "ON",
    "latitude": 53.5323,
    "longitude": -88.6084,
    "isFirstNation": true
  },
  {
    "name": "Starblanket (Ahtahkakoop)",
    "province": "SK",
    "latitude": 53.3714,
    "longitude": -106.9305,
    "isFirstNation": true
  },
  {
    "name": "Teslin Tlingit Council",
    "province": "YT",
    "latitude": 60.1678,
    "longitude": -132.7299,
    "isFirstNation": true
  },
  {
    "name": "Bella Bella (Heiltsuk)",
    "province": "BC",
    "latitude": 52.1616,
    "longitude": -128.1444,
    "isFirstNation": true
  },
  {
    "name": "Kitseguecla (Gitsegukla)",
    "province": "BC",
    "latitude": 55.0875,
    "longitude": -127.8295,
    "isFirstNation": true
  },
  {
    "name": "Malahat Nation",
    "province": "BC",
    "latitude": 48.6137,
    "longitude": -123.5204,
    "isFirstNation": true
  },
  {
    "name": "Mowachaht / Muchalaht",
    "province": "BC",
    "latitude": 49.811,
    "longitude": -126.0721,
    "isFirstNation": true
  },
  {
    "name": "Seabird Island",
    "province": "BC",
    "latitude": 49.2551,
    "longitude": -121.7304,
    "isFirstNation": true
  },
  {
    "name": "Shalalth (Tsal'alh)",
    "province": "BC",
    "latitude": 50.7281,
    "longitude": -122.2176,
    "isFirstNation": true
  },
  {
    "name": "Barren Lands (Brochet)",
    "province": "MB",
    "latitude": 57.8874,
    "longitude": -101.6639,
    "isFirstNation": true
  },
  {
    "name": "St. Theresa Point",
    "province": "MB",
    "latitude": 53.8173,
    "longitude": -94.8512,
    "isFirstNation": true
  },
  {
    "name": "Walpole Island",
    "province": "ON",
    "latitude": 42.5919,
    "longitude": -82.4934,
    "isFirstNation": true
  },
  {
    "name": "Springside (Keeseekoose)",
    "province": "SK",
    "latitude": 51.719,
    "longitude": -101.9092,
    "isFirstNation": true
  },
  {
    "name": "Witchekan Lake",
    "province": "SK",
    "latitude": 53.5115,
    "longitude": -107.6033,
    "isFirstNation": true
  },
  {
    "name": "Ta'an Kwach'an",
    "province": "YT",
    "latitude": 60.7359,
    "longitude": -135.0768,
    "isFirstNation": true
  },
  {
    "name": "McLeod Lake",
    "province": "BC",
    "latitude": 54.9846,
    "longitude": -123.0458,
    "isFirstNation": true
  },
  {
    "name": "Nuxalk Nation",
    "province": "BC",
    "latitude": 52.3619,
    "longitude": -126.7157,
    "isFirstNation": true
  },
  {
    "name": "Shulus (Lower Nicola)",
    "province": "BC",
    "latitude": 50.1383,
    "longitude": -120.8577,
    "isFirstNation": true
  },
  {
    "name": "Spallumcheen (Splatsin)",
    "province": "BC",
    "latitude": 50.5425,
    "longitude": -119.1387,
    "isFirstNation": true
  },
  {
    "name": "Lake Manitoba",
    "province": "MB",
    "latitude": 50.9472,
    "longitude": -98.607,
    "isFirstNation": true
  },
  {
    "name": "Rolling River",
    "province": "MB",
    "latitude": 50.4538,
    "longitude": -99.9866,
    "isFirstNation": true
  },
  {
    "name": "Indian Island",
    "province": "NB",
    "latitude": 46.691,
    "longitude": -64.7945,
    "isFirstNation": true
  },
  {
    "name": "Bearskin Lake",
    "province": "ON",
    "latitude": 53.9241,
    "longitude": -90.9672,
    "isFirstNation": true
  },
  {
    "name": "Kee-Way-Win",
    "province": "ON",
    "latitude": 53.004,
    "longitude": -92.7973,
    "isFirstNation": true
  },
  {
    "name": "Serpent River",
    "province": "ON",
    "latitude": 46.2021,
    "longitude": -82.4681,
    "isFirstNation": true
  },
  {
    "name": "Lennox Island",
    "province": "PE",
    "latitude": 46.5997,
    "longitude": -63.856,
    "isFirstNation": true
  },
  {
    "name": "Montreal Lake",
    "province": "SK",
    "latitude": 54.0517,
    "longitude": -105.7866,
    "isFirstNation": true
  },
  {
    "name": "Waterhen Lake",
    "province": "SK",
    "latitude": 54.5221,
    "longitude": -108.4088,
    "isFirstNation": true
  },
  {
    "name": "Alexis Creek First Nation",
    "province": "BC",
    "latitude": 52.1389,
    "longitude": -123.9525,
    "isFirstNation": true
  },
  {
    "name": "Bridge River",
    "province": "BC",
    "latitude": 50.7695,
    "longitude": -121.9641,
    "isFirstNation": true
  },
  {
    "name": "Fort Ware (Kwadacha)",
    "province": "BC",
    "latitude": 57.4237,
    "longitude": -125.6303,
    "isFirstNation": true
  },
  {
    "name": "Berens River",
    "province": "MB",
    "latitude": 52.3431,
    "longitude": -96.9675,
    "isFirstNation": true
  },
  {
    "name": "Fort Albany (Albany)",
    "province": "ON",
    "latitude": 52.2153,
    "longitude": -81.6836,
    "isFirstNation": true
  },
  {
    "name": "Lac Des Mille Lacs",
    "province": "ON",
    "latitude": 48.8874,
    "longitude": -90.3298,
    "isFirstNation": true
  },
  {
    "name": "Martin Falls First Nation (Ogoki)",
    "province": "ON",
    "latitude": 51.6321,
    "longitude": -85.9235,
    "isFirstNation": true
  },
  {
    "name": "Moravian of the Thames",
    "province": "ON",
    "latitude": 42.564,
    "longitude": -81.8744,
    "isFirstNation": true
  },
  {
    "name": "Sachigo Lake",
    "province": "ON",
    "latitude": 53.8729,
    "longitude": -92.1782,
    "isFirstNation": true
  },
  {
    "name": "Hatchet Lake (Wollaston)",
    "province": "SK",
    "latitude": 58.111,
    "longitude": -103.1576,
    "isFirstNation": true
  },
  {
    "name": "Pelican Lake",
    "province": "SK",
    "latitude": 53.6856,
    "longitude": -107.784,
    "isFirstNation": true
  },
  {
    "name": "Pheasant Rump Nakota",
    "province": "SK",
    "latitude": 49.6601,
    "longitude": -102.6821,
    "isFirstNation": true
  },
  {
    "name": "Mohawks of Kanesatake",
    "province": "QC",
    "latitude": 45.4829,
    "longitude": -74.1297,
    "isFirstNation": true
  },
  {
    "name": "Beecher Bay",
    "province": "BC",
    "latitude": 48.3376,
    "longitude": -123.6083,
    "isFirstNation": true
  },
  {
    "name": "Little Grand Rapids",
    "province": "MB",
    "latitude": 52.018,
    "longitude": -95.4556,
    "isFirstNation": true
  },
  {
    "name": "Whitesand (Armstrong)",
    "province": "ON",
    "latitude": 50.3099,
    "longitude": -89.0432,
    "isFirstNation": true
  },
  {
    "name": "Caldwell (Leamington)",
    "province": "ON",
    "latitude": 42.0528,
    "longitude": -82.5974,
    "isFirstNation": true
  },
  {
    "name": "Heart Lake",
    "province": "AB",
    "latitude": 55.0298,
    "longitude": -111.5393,
    "isFirstNation": true
  },
  {
    "name": "Adams Lake",
    "province": "BC",
    "latitude": 50.8287,
    "longitude": -119.7015,
    "isFirstNation": true
  },
  {
    "name": "Canim Lake",
    "province": "BC",
    "latitude": 51.7711,
    "longitude": -120.9933,
    "isFirstNation": true
  },
  {
    "name": "Kitwanga (Gitwangak)",
    "province": "BC",
    "latitude": 55.1024,
    "longitude": -128.0558,
    "isFirstNation": true
  },
  {
    "name": "Soda Creek First Nation",
    "province": "BC",
    "latitude": 52.2804,
    "longitude": -122.1448,
    "isFirstNation": true
  },
  {
    "name": "Pine Creek",
    "province": "MB",
    "latitude": 52.0455,
    "longitude": -100.1669,
    "isFirstNation": true
  },
  {
    "name": "Bear River",
    "province": "NS",
    "latitude": 44.5596,
    "longitude": -65.6337,
    "isFirstNation": true
  },
  {
    "name": "Curve Lake",
    "province": "ON",
    "latitude": 44.4625,
    "longitude": -78.3753,
    "isFirstNation": true
  },
  {
    "name": "Sandy Lake",
    "province": "ON",
    "latitude": 53.0631,
    "longitude": -93.3277,
    "isFirstNation": true
  },
  {
    "name": "Mohawks of Akwesasne",
    "province": "QC",
    "latitude": 44.9997,
    "longitude": -74.6454,
    "isFirstNation": true
  },
  {
    "name": "Black Lake",
    "province": "SK",
    "latitude": 59.1292,
    "longitude": -105.604,
    "isFirstNation": true
  },
  {
    "name": "Ross River",
    "province": "YT",
    "latitude": 61.9795,
    "longitude": -132.451,
    "isFirstNation": true
  },
  {
    "name": "Ahousaht (Marktosis)",
    "province": "BC",
    "latitude": 49.2781,
    "longitude": -126.0561,
    "isFirstNation": true
  },
  {
    "name": "Frog Lake",
    "province": "AB",
    "latitude": 53.9575,
    "longitude": -110.4008,
    "isFirstNation": true
  },
  {
    "name": "Stand Off (Blood)",
    "province": "AB",
    "latitude": 49.4627,
    "longitude": -113.3012,
    "isFirstNation": true
  },
  {
    "name": "Little Saskatchewan",
    "province": "MB",
    "latitude": 51.6833,
    "longitude": -98.5604,
    "isFirstNation": true
  },
  {
    "name": "Sandy Bay",
    "province": "MB",
    "latitude": 50.5493,
    "longitude": -98.6473,
    "isFirstNation": true
  },
  {
    "name": "Deer Lake",
    "province": "ON",
    "latitude": 52.6326,
    "longitude": -94.0654,
    "isFirstNation": true
  },
  {
    "name": "Peawanuck (Weenusk)",
    "province": "ON",
    "latitude": 55.0088,
    "longitude": -85.421,
    "isFirstNation": true
  },
  {
    "name": "Sagamok Anishnawbek",
    "province": "ON",
    "latitude": 46.1575,
    "longitude": -82.1102,
    "isFirstNation": true
  },
  {
    "name": "Wolf Lake",
    "province": "QC",
    "latitude": 46.9973,
    "longitude": -78.7998,
    "isFirstNation": true
  },
  {
    "name": "Big River First Nation",
    "province": "SK",
    "latitude": 53.5748,
    "longitude": -107.1108,
    "isFirstNation": true
  },
  {
    "name": "Little Black Bear",
    "province": "SK",
    "latitude": 51.0046,
    "longitude": -103.3163,
    "isFirstNation": true
  },
  {
    "name": "Tjipõgtõtjg First Nation (Bouctouche Micmac)",
    "province": "NB",
    "latitude": 46.4546,
    "longitude": -64.7615,
    "isFirstNation": true
  },
  {
    "name": "Lax Kw'alaams",
    "province": "BC",
    "latitude": 54.5586,
    "longitude": -130.4331,
    "isFirstNation": true
  },
  {
    "name": "Fox Lake",
    "province": "MB",
    "latitude": 56.5047,
    "longitude": -94.2029,
    "isFirstNation": true
  },
  {
    "name": "Cat Lake",
    "province": "ON",
    "latitude": 51.7191,
    "longitude": -91.8138,
    "isFirstNation": true
  },
  {
    "name": "Gull Bay",
    "province": "ON",
    "latitude": 49.8045,
    "longitude": -89.1066,
    "isFirstNation": true
  },
  {
    "name": "Moose Deer Point",
    "province": "ON",
    "latitude": 45.0795,
    "longitude": -80.0038,
    "isFirstNation": true
  },
  {
    "name": "Niharondasa Seneca",
    "province": "ON",
    "latitude": 43.0428,
    "longitude": -80.1019,
    "isFirstNation": true
  },
  {
    "name": "Glenroy (Abegweit)",
    "province": "PE",
    "latitude": 46.3579,
    "longitude": -62.9026,
    "isFirstNation": true
  },
  {
    "name": "Carry The Kettle",
    "province": "SK",
    "latitude": 50.3549,
    "longitude": -103.4675,
    "isFirstNation": true
  },
  {
    "name": "Halalt (Westholme)",
    "province": "BC",
    "latitude": 48.874,
    "longitude": -123.6961,
    "isFirstNation": true
  },
  {
    "name": "Cook's Ferry",
    "province": "BC",
    "latitude": 50.4241,
    "longitude": -121.3179,
    "isFirstNation": true
  },
  {
    "name": "Lower Similkameen",
    "province": "BC",
    "latitude": 49.0514,
    "longitude": -119.7238,
    "isFirstNation": true
  },
  {
    "name": "Saint Mary's",
    "province": "NB",
    "latitude": 45.9714,
    "longitude": -66.6313,
    "isFirstNation": true
  },
  {
    "name": "Bearfoot Onondaga",
    "province": "ON",
    "latitude": 43.0228,
    "longitude": -80.048,
    "isFirstNation": true
  },
  {
    "name": "Quw'utsun (Cowichan Nation)",
    "province": "BC",
    "latitude": 48.7762,
    "longitude": -123.7093,
    "isFirstNation": true
  },
  {
    "name": "Ermineskin Tribe",
    "province": "AB",
    "latitude": 52.8359,
    "longitude": -113.4525,
    "isFirstNation": true
  },
  {
    "name": "Klemtu (Kitasoo)",
    "province": "BC",
    "latitude": 52.5874,
    "longitude": -128.5201,
    "isFirstNation": true
  },
  {
    "name": "Annapolis Valley",
    "province": "NS",
    "latitude": 45.0666,
    "longitude": -64.6517,
    "isFirstNation": true
  },
  {
    "name": "Fort Good Hope",
    "province": "NT",
    "latitude": 66.2571,
    "longitude": -128.6375,
    "isFirstNation": true
  },
  {
    "name": "Chapleau Ojibway Nation",
    "province": "ON",
    "latitude": 47.816,
    "longitude": -83.3939,
    "isFirstNation": true
  },
  {
    "name": "Standing Buffalo",
    "province": "SK",
    "latitude": 50.8016,
    "longitude": -103.8949,
    "isFirstNation": true
  },
  {
    "name": "Samson (Hobbema)",
    "province": "AB",
    "latitude": 52.8204,
    "longitude": -113.455,
    "isFirstNation": true
  },
  {
    "name": "Penelakut Tribe",
    "province": "BC",
    "latitude": 48.971,
    "longitude": -123.6597,
    "isFirstNation": true
  },
  {
    "name": "Gwawaenuk Tribe",
    "province": "BC",
    "latitude": 50.924,
    "longitude": -126.8221,
    "isFirstNation": true
  },
  {
    "name": "New Westminster",
    "province": "BC",
    "latitude": 49.2363,
    "longitude": -123.024,
    "isFirstNation": true
  },
  {
    "name": "Tlowitsis Tribe",
    "province": "BC",
    "latitude": 49.9095,
    "longitude": -125.2089,
    "isFirstNation": true
  },
  {
    "name": "Tsay Keh Dene",
    "province": "BC",
    "latitude": 56.8926,
    "longitude": -124.9624,
    "isFirstNation": true
  },
  {
    "name": "Brunswick House",
    "province": "ON",
    "latitude": 47.8358,
    "longitude": -83.3431,
    "isFirstNation": true
  },
  {
    "name": "Konadaha Seneca",
    "province": "ON",
    "latitude": 43.0377,
    "longitude": -80.0887,
    "isFirstNation": true
  },
  {
    "name": "Missanabie Cree",
    "province": "ON",
    "latitude": 46.5518,
    "longitude": -84.2018,
    "isFirstNation": true
  },
  {
    "name": "Lower Kootenay",
    "province": "BC",
    "latitude": 49.0667,
    "longitude": -116.5163,
    "isFirstNation": true
  },
  {
    "name": "Birdtail Sioux",
    "province": "MB",
    "latitude": 50.2662,
    "longitude": -101.1492,
    "isFirstNation": true
  },
  {
    "name": "Fort Alexander",
    "province": "MB",
    "latitude": 50.6113,
    "longitude": -96.3095,
    "isFirstNation": true
  },
  {
    "name": "Pictou Landing",
    "province": "NS",
    "latitude": 45.6744,
    "longitude": -62.6523,
    "isFirstNation": true
  },
  {
    "name": "Lac La Croix",
    "province": "ON",
    "latitude": 48.3742,
    "longitude": -92.1612,
    "isFirstNation": true
  },
  {
    "name": "Obashkaandagaang",
    "province": "ON",
    "latitude": 49.7145,
    "longitude": -94.5871,
    "isFirstNation": true
  },
  {
    "name": "Lac La Ronge",
    "province": "SK",
    "latitude": 55.0989,
    "longitude": -105.3038,
    "isFirstNation": true
  },
  {
    "name": "Inuvik Native",
    "province": "NT",
    "latitude": 68.361,
    "longitude": -133.7298,
    "isFirstNation": true
  },
  {
    "name": "Dog Rib Rae",
    "province": "NT",
    "latitude": 62.83,
    "longitude": -116.05,
    "isFirstNation": true
  },
  {
    "name": "O'Chiese",
    "province": "AB",
    "latitude": 52.7059,
    "longitude": -115.2814,
    "isFirstNation": true
  },
  {
    "name": "Nadleh Whuten",
    "province": "BC",
    "latitude": 54.0761,
    "longitude": -124.6077,
    "isFirstNation": true
  },
  {
    "name": "Dakota Plains",
    "province": "MB",
    "latitude": 49.8176,
    "longitude": -98.523,
    "isFirstNation": true
  },
  {
    "name": "Nahanni Butte",
    "province": "NT",
    "latitude": 61.0312,
    "longitude": -123.3826,
    "isFirstNation": true
  },
  {
    "name": "Mishkeegogamang",
    "province": "ON",
    "latitude": 51.0921,
    "longitude": -90.2295,
    "isFirstNation": true
  },
  {
    "name": "Innue Essipit",
    "province": "QC",
    "latitude": 48.3432,
    "longitude": -69.3986,
    "isFirstNation": true
  },
  {
    "name": "Wood Mountain",
    "province": "SK",
    "latitude": 49.3354,
    "longitude": -106.4493,
    "isFirstNation": true
  },
  {
    "name": "Upper Nicola",
    "province": "BC",
    "latitude": 50.142,
    "longitude": -120.2824,
    "isFirstNation": true
  },
  {
    "name": "Ebb and Flow",
    "province": "MB",
    "latitude": 51.0238,
    "longitude": -99.0428,
    "isFirstNation": true
  },
  {
    "name": "Keeseekoowenin",
    "province": "MB",
    "latitude": 50.6298,
    "longitude": -100.1817,
    "isFirstNation": true
  },
  {
    "name": "Fort William",
    "province": "ON",
    "latitude": 48.3543,
    "longitude": -89.2627,
    "isFirstNation": true
  },
  {
    "name": "Lower Cayuga",
    "province": "ON",
    "latitude": 43.0277,
    "longitude": -80.0611,
    "isFirstNation": true
  },
  {
    "name": "Upper Cayuga",
    "province": "ON",
    "latitude": 43.0326,
    "longitude": -80.0749,
    "isFirstNation": true
  },
  {
    "name": "Upper Mohawk",
    "province": "ON",
    "latitude": 43.0686,
    "longitude": -80.1705,
    "isFirstNation": true
  },
  {
    "name": "Wahta Mohawk",
    "province": "ON",
    "latitude": 44.9947,
    "longitude": -79.7774,
    "isFirstNation": true
  },
  {
    "name": "Red Pheasant",
    "province": "SK",
    "latitude": 52.4579,
    "longitude": -108.1796,
    "isFirstNation": true
  },
  {
    "name": "Yellow Quill",
    "province": "SK",
    "latitude": 52.3032,
    "longitude": -103.6251,
    "isFirstNation": true
  },
  {
    "name": "Tulita Dene",
    "province": "NT",
    "latitude": 64.9005,
    "longitude": -125.5779,
    "isFirstNation": true
  },
  {
    "name": "Glen Vowell",
    "province": "BC",
    "latitude": 55.31,
    "longitude": -127.6744,
    "isFirstNation": true
  },
  {
    "name": "Yakweakwioose",
    "province": "BC",
    "latitude": 49.1326,
    "longitude": -121.9386,
    "isFirstNation": true
  },
  {
    "name": "Dakota Tipi",
    "province": "MB",
    "latitude": 49.9481,
    "longitude": -98.3406,
    "isFirstNation": true
  },
  {
    "name": "Flying Post",
    "province": "ON",
    "latitude": 48.5533,
    "longitude": -82.0731,
    "isFirstNation": true
  },
  {
    "name": "Fort Severn",
    "province": "ON",
    "latitude": 55.9905,
    "longitude": -87.6366,
    "isFirstNation": true
  },
  {
    "name": "Poplar Hill First Nation",
    "province": "ON",
    "latitude": 52.0999,
    "longitude": -94.3057,
    "isFirstNation": true
  },
  {
    "name": "Sheshegwaning",
    "province": "ON",
    "latitude": 45.9335,
    "longitude": -82.8369,
    "isFirstNation": true
  },
  {
    "name": "Fond du Lac",
    "province": "SK",
    "latitude": 59.3275,
    "longitude": -107.1889,
    "isFirstNation": true
  },
  {
    "name": "James Smith",
    "province": "SK",
    "latitude": 53.1057,
    "longitude": -104.8776,
    "isFirstNation": true
  },
  {
    "name": "Kahkewistahaw",
    "province": "SK",
    "latitude": 50.4912,
    "longitude": -102.5314,
    "isFirstNation": true
  },
  {
    "name": "Little Pine",
    "province": "SK",
    "latitude": 52.9157,
    "longitude": -109.0587,
    "isFirstNation": true
  },
  {
    "name": "Louis Bull",
    "province": "AB",
    "latitude": 52.8747,
    "longitude": -113.5721,
    "isFirstNation": true
  },
  {
    "name": "Cape Mudge",
    "province": "BC",
    "latitude": 50.0184,
    "longitude": -125.2909,
    "isFirstNation": true
  },
  {
    "name": "Kanaka Bar",
    "province": "BC",
    "latitude": 50.1122,
    "longitude": -121.562,
    "isFirstNation": true
  },
  {
    "name": "Uchucklesaht",
    "province": "BC",
    "latitude": 49.024,
    "longitude": -125.04,
    "isFirstNation": true
  },
  {
    "name": "Xaxli'p",
    "province": "BC",
    "latitude": 50.7346,
    "longitude": -121.8644,
    "isFirstNation": true
  },
  {
    "name": "Long Plain",
    "province": "MB",
    "latitude": 49.8566,
    "longitude": -98.4652,
    "isFirstNation": true
  },
  {
    "name": "Eel Ground",
    "province": "NB",
    "latitude": 46.9646,
    "longitude": -65.6284,
    "isFirstNation": true
  },
  {
    "name": "Fort Folly",
    "province": "NB",
    "latitude": 45.8907,
    "longitude": -64.5028,
    "isFirstNation": true
  },
  {
    "name": "Attawapiskat",
    "province": "ON",
    "latitude": 52.9255,
    "longitude": -82.4252,
    "isFirstNation": true
  },
  {
    "name": "Big Grassy",
    "province": "ON",
    "latitude": 49.0658,
    "longitude": -94.3219,
    "isFirstNation": true
  },
  {
    "name": "Michipicoten",
    "province": "ON",
    "latitude": 47.9612,
    "longitude": -84.9272,
    "isFirstNation": true
  },
  {
    "name": "Pic Mobert",
    "province": "ON",
    "latitude": 48.698,
    "longitude": -85.6087,
    "isFirstNation": true
  },
  {
    "name": "Muscowpetung",
    "province": "SK",
    "latitude": 50.776,
    "longitude": -104.2839,
    "isFirstNation": true
  },
  {
    "name": "Kitsumkalum",
    "province": "BC",
    "latitude": 54.5229,
    "longitude": -128.6673,
    "isFirstNation": true
  },
  {
    "name": "Skeetchestn",
    "province": "BC",
    "latitude": 50.8397,
    "longitude": -120.9548,
    "isFirstNation": true
  },
  {
    "name": "Skin Tyee",
    "province": "BC",
    "latitude": 53.9952,
    "longitude": -125.8822,
    "isFirstNation": true
  },
  {
    "name": "Aamjiwnaang",
    "province": "ON",
    "latitude": 42.936,
    "longitude": -82.4161,
    "isFirstNation": true
  },
  {
    "name": "Mississauga First Nation",
    "province": "ON",
    "latitude": 46.1965,
    "longitude": -83.0048,
    "isFirstNation": true
  },
  {
    "name": "Pays Plat",
    "province": "ON",
    "latitude": 48.8832,
    "longitude": -87.5572,
    "isFirstNation": true
  },
  {
    "name": "Sheguiandah",
    "province": "ON",
    "latitude": 45.8833,
    "longitude": -81.9156,
    "isFirstNation": true
  },
  {
    "name": "Wawakapewin",
    "province": "ON",
    "latitude": 53.4524,
    "longitude": -89.1417,
    "isFirstNation": true
  },
  {
    "name": "Wikwemikong",
    "province": "ON",
    "latitude": 45.7975,
    "longitude": -81.7281,
    "isFirstNation": true
  },
  {
    "name": "Kawacatoose",
    "province": "SK",
    "latitude": 51.4818,
    "longitude": -104.4044,
    "isFirstNation": true
  },
  {
    "name": "Lucky Man",
    "province": "SK",
    "latitude": 52.9889,
    "longitude": -107.2366,
    "isFirstNation": true
  },
  {
    "name": "Muskowekwan",
    "province": "SK",
    "latitude": 51.3271,
    "longitude": -104.0044,
    "isFirstNation": true
  },
  {
    "name": "Ocean Man",
    "province": "SK",
    "latitude": 49.8244,
    "longitude": -102.9341,
    "isFirstNation": true
  },
  {
    "name": "Red Earth",
    "province": "SK",
    "latitude": 53.491,
    "longitude": -102.8611,
    "isFirstNation": true
  },
  {
    "name": "Aitchelitz",
    "province": "BC",
    "latitude": 49.1504,
    "longitude": -121.9869,
    "isFirstNation": true
  },
  {
    "name": "Ehattesaht",
    "province": "BC",
    "latitude": 49.8739,
    "longitude": -126.9793,
    "isFirstNation": true
  },
  {
    "name": "High Bar",
    "province": "BC",
    "latitude": 51.113,
    "longitude": -122.0181,
    "isFirstNation": true
  },
  {
    "name": "Neskonlith",
    "province": "BC",
    "latitude": 50.7733,
    "longitude": -119.7306,
    "isFirstNation": true
  },
  {
    "name": "Nuchatlaht",
    "province": "BC",
    "latitude": 49.9903,
    "longitude": -126.9421,
    "isFirstNation": true
  },
  {
    "name": "Pauquachin",
    "province": "BC",
    "latitude": 48.6272,
    "longitude": -123.4585,
    "isFirstNation": true
  },
  {
    "name": "Wagmatcook",
    "province": "NS",
    "latitude": 46.0738,
    "longitude": -60.9182,
    "isFirstNation": true
  },
  {
    "name": "Magnetawan First Nation",
    "province": "ON",
    "latitude": 45.7694,
    "longitude": -80.5008,
    "isFirstNation": true
  },
  {
    "name": "Matachewan First Nation",
    "province": "ON",
    "latitude": 48.0662,
    "longitude": -80.6405,
    "isFirstNation": true
  },
  {
    "name": "Pikangikum",
    "province": "ON",
    "latitude": 51.8005,
    "longitude": -93.9947,
    "isFirstNation": true
  },
  {
    "name": "Red Rock First Nation",
    "province": "ON",
    "latitude": 49.0289,
    "longitude": -88.2453,
    "isFirstNation": true
  },
  {
    "name": "Wahnapitae",
    "province": "ON",
    "latitude": 46.773,
    "longitude": -80.8112,
    "isFirstNation": true
  },
  {
    "name": "Day Star",
    "province": "SK",
    "latitude": 51.5065,
    "longitude": -104.2224,
    "isFirstNation": true
  },
  {
    "name": "Ochapowace",
    "province": "SK",
    "latitude": 50.47,
    "longitude": -102.3944,
    "isFirstNation": true
  },
  {
    "name": "Poundmaker",
    "province": "SK",
    "latitude": 52.8961,
    "longitude": -108.9743,
    "isFirstNation": true
  },
  {
    "name": "Sweetgrass",
    "province": "SK",
    "latitude": 52.7655,
    "longitude": -108.7159,
    "isFirstNation": true
  },
  {
    "name": "Alexander",
    "province": "AB",
    "latitude": 53.8039,
    "longitude": -113.9206,
    "isFirstNation": true
  },
  {
    "name": "Bonaparte",
    "province": "BC",
    "latitude": 50.8422,
    "longitude": -121.3853,
    "isFirstNation": true
  },
  {
    "name": "Boothroyd",
    "province": "BC",
    "latitude": 49.9631,
    "longitude": -121.485,
    "isFirstNation": true
  },
  {
    "name": "Chawathil",
    "province": "BC",
    "latitude": 49.3698,
    "longitude": -121.5526,
    "isFirstNation": true
  },
  {
    "name": "Coldwater",
    "province": "BC",
    "latitude": 50.0311,
    "longitude": -120.8592,
    "isFirstNation": true
  },
  {
    "name": "Penticton",
    "province": "BC",
    "latitude": 49.4914,
    "longitude": -119.6448,
    "isFirstNation": true
  },
  {
    "name": "Samahquam",
    "province": "BC",
    "latitude": 49.9906,
    "longitude": -122.4581,
    "isFirstNation": true
  },
  {
    "name": "Semiahmoo",
    "province": "BC",
    "latitude": 49.0145,
    "longitude": -122.7777,
    "isFirstNation": true
  },
  {
    "name": "Skidegate",
    "province": "BC",
    "latitude": 53.2696,
    "longitude": -131.9904,
    "isFirstNation": true
  },
  {
    "name": "Soowahlie",
    "province": "BC",
    "latitude": 49.081,
    "longitude": -121.969,
    "isFirstNation": true
  },
  {
    "name": "Tzeachten",
    "province": "BC",
    "latitude": 49.1119,
    "longitude": -121.954,
    "isFirstNation": true
  },
  {
    "name": "Bloodvein",
    "province": "MB",
    "latitude": 51.7834,
    "longitude": -96.6969,
    "isFirstNation": true
  },
  {
    "name": "Miawpukek",
    "province": "NL",
    "latitude": 47.8641,
    "longitude": -55.7573,
    "isFirstNation": true
  },
  {
    "name": "Membertou",
    "province": "NS",
    "latitude": 46.1168,
    "longitude": -60.1951,
    "isFirstNation": true
  },
  {
    "name": "Millbrook",
    "province": "NS",
    "latitude": 45.3338,
    "longitude": -63.2927,
    "isFirstNation": true
  },
  {
    "name": "Mattagami",
    "province": "ON",
    "latitude": 47.7989,
    "longitude": -81.5223,
    "isFirstNation": true
  },
  {
    "name": "Thessalon First Nation",
    "province": "ON",
    "latitude": 46.2596,
    "longitude": -83.4157,
    "isFirstNation": true
  },
  {
    "name": "Waswanipi",
    "province": "QC",
    "latitude": 49.7023,
    "longitude": -75.9591,
    "isFirstNation": true
  },
  {
    "name": "Cowessess",
    "province": "SK",
    "latitude": 50.5164,
    "longitude": -102.6601,
    "isFirstNation": true
  },
  {
    "name": "Saulteaux",
    "province": "SK",
    "latitude": 53.1256,
    "longitude": -108.3295,
    "isFirstNation": true
  },
  {
    "name": "Champagne",
    "province": "YT",
    "latitude": 60.7861,
    "longitude": -136.4814,
    "isFirstNation": true
  },
  {
    "name": "?aqam",
    "province": "BC",
    "latitude": 49.5835,
    "longitude": -115.7545,
    "isFirstNation": true
  },
  {
    "name": "Ashcroft",
    "province": "BC",
    "latitude": 50.7204,
    "longitude": -121.3225,
    "isFirstNation": true
  },
  {
    "name": "Ditidaht",
    "province": "BC",
    "latitude": 48.8093,
    "longitude": -124.6697,
    "isFirstNation": true
  },
  {
    "name": "Gitanyow",
    "province": "BC",
    "latitude": 55.2654,
    "longitude": -128.0695,
    "isFirstNation": true
  },
  {
    "name": "Kitselas",
    "province": "BC",
    "latitude": 54.4933,
    "longitude": -128.5835,
    "isFirstNation": true
  },
  {
    "name": "Kwakiutl",
    "province": "BC",
    "latitude": 50.6948,
    "longitude": -127.4074,
    "isFirstNation": true
  },
  {
    "name": "Lyackson",
    "province": "BC",
    "latitude": 49.0421,
    "longitude": -123.6433,
    "isFirstNation": true
  },
  {
    "name": "Musqueam",
    "province": "BC",
    "latitude": 49.2249,
    "longitude": -123.1992,
    "isFirstNation": true
  },
  {
    "name": "Nooaitch",
    "province": "BC",
    "latitude": 50.1534,
    "longitude": -121.0351,
    "isFirstNation": true
  },
  {
    "name": "Okanagan",
    "province": "BC",
    "latitude": 50.3562,
    "longitude": -119.3181,
    "isFirstNation": true
  },
  {
    "name": "Skowkale",
    "province": "BC",
    "latitude": 49.1417,
    "longitude": -121.9406,
    "isFirstNation": true
  },
  {
    "name": "Squamish First Nation",
    "province": "BC",
    "latitude": 49.3183,
    "longitude": -123.0836,
    "isFirstNation": true
  },
  {
    "name": "Tsartlip",
    "province": "BC",
    "latitude": 48.5813,
    "longitude": -123.4675,
    "isFirstNation": true
  },
  {
    "name": "Tseshaht",
    "province": "BC",
    "latitude": 49.2672,
    "longitude": -124.8489,
    "isFirstNation": true
  },
  {
    "name": "Pabineau",
    "province": "NB",
    "latitude": 47.5333,
    "longitude": -65.6691,
    "isFirstNation": true
  },
  {
    "name": "Eskasoni",
    "province": "NS",
    "latitude": 45.9305,
    "longitude": -60.6455,
    "isFirstNation": true
  },
  {
    "name": "Delaware First Nation",
    "province": "ON",
    "latitude": 43.0552,
    "longitude": -80.1357,
    "isFirstNation": true
  },
  {
    "name": "Webequie",
    "province": "ON",
    "latitude": 52.9828,
    "longitude": -87.3597,
    "isFirstNation": true
  },
  {
    "name": "Eastmain",
    "province": "QC",
    "latitude": 52.2443,
    "longitude": -78.5026,
    "isFirstNation": true
  },
  {
    "name": "Moosomin First Nation",
    "province": "SK",
    "latitude": 53.0827,
    "longitude": -108.3165,
    "isFirstNation": true
  },
  {
    "name": "Nekaneet",
    "province": "SK",
    "latitude": 49.6752,
    "longitude": -109.1982,
    "isFirstNation": true
  },
  {
    "name": "Aishihik",
    "province": "YT",
    "latitude": 61.5992,
    "longitude": -137.5067,
    "isFirstNation": true
  },
  {
    "name": "Montana",
    "province": "AB",
    "latitude": 52.7278,
    "longitude": -113.4412,
    "isFirstNation": true
  },
  {
    "name": "Douglas First Nation",
    "province": "BC",
    "latitude": 49.756,
    "longitude": -122.2011,
    "isFirstNation": true
  },
  {
    "name": "Homalco",
    "province": "BC",
    "latitude": 49.9516,
    "longitude": -125.2436,
    "isFirstNation": true
  },
  {
    "name": "Kispiox",
    "province": "BC",
    "latitude": 55.3489,
    "longitude": -127.6983,
    "isFirstNation": true
  },
  {
    "name": "Kwiakah",
    "province": "BC",
    "latitude": 50.4227,
    "longitude": -125.1578,
    "isFirstNation": true
  },
  {
    "name": "Matsqui",
    "province": "BC",
    "latitude": 49.1045,
    "longitude": -122.3388,
    "isFirstNation": true
  },
  {
    "name": "Nicomen",
    "province": "BC",
    "latitude": 50.2644,
    "longitude": -121.3982,
    "isFirstNation": true
  },
  {
    "name": "Osoyoos First Nation",
    "province": "BC",
    "latitude": 49.1838,
    "longitude": -119.5331,
    "isFirstNation": true
  },
  {
    "name": "Shackan",
    "province": "BC",
    "latitude": 50.2934,
    "longitude": -121.1754,
    "isFirstNation": true
  },
  {
    "name": "Shuswap First Nation",
    "province": "BC",
    "latitude": 50.5159,
    "longitude": -116.0073,
    "isFirstNation": true
  },
  {
    "name": "Skuppah",
    "province": "BC",
    "latitude": 50.1876,
    "longitude": -121.5739,
    "isFirstNation": true
  },
  {
    "name": "Spuzzum",
    "province": "BC",
    "latitude": 49.661,
    "longitude": -121.4115,
    "isFirstNation": true
  },
  {
    "name": "Toquaht",
    "province": "BC",
    "latitude": 48.945,
    "longitude": -125.557,
    "isFirstNation": true
  },
  {
    "name": "Tseycum",
    "province": "BC",
    "latitude": 48.666,
    "longitude": -123.4513,
    "isFirstNation": true
  },
  {
    "name": "Tobique",
    "province": "NB",
    "latitude": 46.7872,
    "longitude": -67.697,
    "isFirstNation": true
  },
  {
    "name": "Aklavik",
    "province": "NT",
    "latitude": 68.218,
    "longitude": -135.0201,
    "isFirstNation": true
  },
  {
    "name": "Aroland",
    "province": "ON",
    "latitude": 50.2322,
    "longitude": -86.9575,
    "isFirstNation": true
  },
  {
    "name": "Okanese",
    "province": "SK",
    "latitude": 50.9439,
    "longitude": -103.3554,
    "isFirstNation": true
  },
  {
    "name": "Katzie",
    "province": "BC",
    "latitude": 49.2014,
    "longitude": -122.6769,
    "isFirstNation": true
  },
  {
    "name": "Lytton",
    "province": "BC",
    "latitude": 50.2375,
    "longitude": -121.5776,
    "isFirstNation": true
  },
  {
    "name": "Popkum",
    "province": "BC",
    "latitude": 49.2095,
    "longitude": -121.7101,
    "isFirstNation": true
  },
  {
    "name": "Toosey",
    "province": "BC",
    "latitude": 51.9318,
    "longitude": -122.5023,
    "isFirstNation": true
  },
  {
    "name": "Peguis First Nation",
    "province": "MB",
    "latitude": 51.3055,
    "longitude": -97.5586,
    "isFirstNation": true
  },
  {
    "name": "Acadia",
    "province": "NS",
    "latitude": 43.8331,
    "longitude": -66.0835,
    "isFirstNation": true
  },
  {
    "name": "Oneida",
    "province": "ON",
    "latitude": 43.0598,
    "longitude": -80.1482,
    "isFirstNation": true
  },
  {
    "name": "Piapot First Nation",
    "province": "SK",
    "latitude": 50.7771,
    "longitude": -104.4271,
    "isFirstNation": true
  },
  {
    "name": "Cheam",
    "province": "BC",
    "latitude": 49.1893,
    "longitude": -121.7838,
    "isFirstNation": true
  },
  {
    "name": "Iskut",
    "province": "BC",
    "latitude": 57.8379,
    "longitude": -129.9882,
    "isFirstNation": true
  },
  {
    "name": "Siska",
    "province": "BC",
    "latitude": 50.1363,
    "longitude": -121.5716,
    "isFirstNation": true
  },
  {
    "name": "Skwah",
    "province": "BC",
    "latitude": 49.1781,
    "longitude": -121.9723,
    "isFirstNation": true
  },
  {
    "name": "Dokis",
    "province": "ON",
    "latitude": 46.1295,
    "longitude": -80.0324,
    "isFirstNation": true
  },
  {
    "name": "Paul",
    "province": "AB",
    "latitude": 53.5238,
    "longitude": -114.3707,
    "isFirstNation": true
  },
  {
    "name": "Saint-Pierre-de-l'Île-d'Orléans",
    "province": "QC",
    "latitude": 46.8895,
    "longitude": -71.0719,
    "isFirstNation": false
  },
  {
    "name": "Sainte-Catherine-de-la-Jacques-Cartier",
    "province": "QC",
    "latitude": 46.8429,
    "longitude": -71.6162,
    "isFirstNation": false
  },
  {
    "name": "Saint-André-du-Lac-Saint-Jean",
    "province": "QC",
    "latitude": 48.3138,
    "longitude": -71.9906,
    "isFirstNation": false
  },
  {
    "name": "Saint-Hubert-de-Rivière-du-Loup",
    "province": "QC",
    "latitude": 47.8148,
    "longitude": -69.1492,
    "isFirstNation": false
  },
  {
    "name": "L'Anse-Sainte-Anne-des-Monts",
    "province": "QC",
    "latitude": 49.1167,
    "longitude": -66.5167,
    "isFirstNation": false
  },
  {
    "name": "Sainte-Émélie-de-l'Énergie",
    "province": "QC",
    "latitude": 46.3222,
    "longitude": -73.644,
    "isFirstNation": false
  },
  {
    "name": "Saint-Jean-Baptiste-de-Restigouche",
    "province": "NB",
    "latitude": 47.7656,
    "longitude": -67.2128,
    "isFirstNation": false
  },
  {
    "name": "Port au Port West-Aguathuna- Felix Cove",
    "province": "NL",
    "latitude": 48.5507,
    "longitude": -58.7569,
    "isFirstNation": false
  },
  {
    "name": "Sainte-Hélène-de-Breakeyville",
    "province": "QC",
    "latitude": 46.6764,
    "longitude": -71.2256,
    "isFirstNation": false
  },
  {
    "name": "Saint-Jean-Baptiste-de-Rouville",
    "province": "QC",
    "latitude": 45.5199,
    "longitude": -73.1242,
    "isFirstNation": false
  },
  {
    "name": "Sainte-Thérèse-de-Gaspé",
    "province": "QC",
    "latitude": 48.4103,
    "longitude": -64.4132,
    "isFirstNation": false
  },
  {
    "name": "Saint-Honoré-de-Témiscouata",
    "province": "QC",
    "latitude": 47.7081,
    "longitude": -69.1332,
    "isFirstNation": false
  },
  {
    "name": "Saint-Maurice-de-l'Échouerie",
    "province": "QC",
    "latitude": 49.0455,
    "longitude": -64.4925,
    "isFirstNation": false
  },
  {
    "name": "Saint-Édouard-de-Maskinongé",
    "province": "QC",
    "latitude": 46.3301,
    "longitude": -73.1468,
    "isFirstNation": false
  },
  {
    "name": "Sainte-Clotilde-de-Châteauguay",
    "province": "QC",
    "latitude": 45.1589,
    "longitude": -73.6763,
    "isFirstNation": false
  },
  {
    "name": "Saint-Eugène-de-Ladrière",
    "province": "QC",
    "latitude": 48.2506,
    "longitude": -68.7986,
    "isFirstNation": false
  },
  {
    "name": "Saint-Louis-du-Ha! Ha!",
    "province": "QC",
    "latitude": 47.6706,
    "longitude": -68.977,
    "isFirstNation": false
  },
  {
    "name": "Sainte-Angèle-de-Prémont",
    "province": "QC",
    "latitude": 46.3631,
    "longitude": -73.059,
    "isFirstNation": false
  },
  {
    "name": "Sainte-Anne-de-la-Pérade",
    "province": "QC",
    "latitude": 46.5719,
    "longitude": -72.2001,
    "isFirstNation": false
  },
  {
    "name": "Sainte-Cécile-de-Lévrard",
    "province": "QC",
    "latitude": 46.4667,
    "longitude": -72.1615,
    "isFirstNation": false
  },
  {
    "name": "Sainte-Hélène-de-Chester",
    "province": "QC",
    "latitude": 46.032,
    "longitude": -71.7087,
    "isFirstNation": false
  },
  {
    "name": "Petite-Rivière-de-l'Ile",
    "province": "NB",
    "latitude": 47.8693,
    "longitude": -64.6439,
    "isFirstNation": false
  },
  {
    "name": "Sainte-Marie-Saint-Raphaël",
    "province": "NB",
    "latitude": 47.7979,
    "longitude": -64.5654,
    "isFirstNation": false
  },
  {
    "name": "Saint-Gérard-des-Laurentides",
    "province": "QC",
    "latitude": 46.6028,
    "longitude": -72.8135,
    "isFirstNation": false
  },
  {
    "name": "Sainte-Geneviève-de-Batiscan",
    "province": "QC",
    "latitude": 46.5303,
    "longitude": -72.3401,
    "isFirstNation": false
  },
  {
    "name": "Stoney Point (Pointe-aux-Roches)",
    "province": "ON",
    "latitude": 42.3102,
    "longitude": -82.5491,
    "isFirstNation": false
  },
  {
    "name": "Notre-Dame-du-Bon-Conseil",
    "province": "QC",
    "latitude": 46.0009,
    "longitude": -72.3428,
    "isFirstNation": false
  },
  {
    "name": "Saint-Gédéon-de-Beauce",
    "province": "QC",
    "latitude": 45.8523,
    "longitude": -70.6362,
    "isFirstNation": false
  },
  {
    "name": "Sainte-Hélène-de-Bagot",
    "province": "QC",
    "latitude": 45.7311,
    "longitude": -72.7373,
    "isFirstNation": false
  },
  {
    "name": "East River Sheet Harbour",
    "province": "NS",
    "latitude": 44.9205,
    "longitude": -62.513,
    "isFirstNation": false
  },
  {
    "name": "Sainte-Anne-de-la-Rochelle",
    "province": "QC",
    "latitude": 45.405,
    "longitude": -72.4034,
    "isFirstNation": false
  },
  {
    "name": "Bay Shore Heights (Spruce Sands)",
    "province": "MB",
    "latitude": 50.7875,
    "longitude": -96.9946,
    "isFirstNation": false
  },
  {
    "name": "Deschaillons-sur-Saint-Laurent",
    "province": "QC",
    "latitude": 46.5556,
    "longitude": -72.1162,
    "isFirstNation": false
  },
  {
    "name": "Saint-Alexis-de-Matapédia",
    "province": "QC",
    "latitude": 47.9692,
    "longitude": -67.053,
    "isFirstNation": false
  },
  {
    "name": "Saint-Cléophas-de-Brandon",
    "province": "QC",
    "latitude": 46.2284,
    "longitude": -73.4086,
    "isFirstNation": false
  },
  {
    "name": "Saint-Eugène-d'Argentenay",
    "province": "QC",
    "latitude": 48.9766,
    "longitude": -72.2846,
    "isFirstNation": false
  },
  {
    "name": "Saint-Georges-de-Clarenceville",
    "province": "QC",
    "latitude": 45.0628,
    "longitude": -73.2487,
    "isFirstNation": false
  },
  {
    "name": "Saint-Léonard-de-Portneuf",
    "province": "QC",
    "latitude": 46.8916,
    "longitude": -71.9096,
    "isFirstNation": false
  },
  {
    "name": "Saint-Philippe-de-La Prairie",
    "province": "QC",
    "latitude": 45.3569,
    "longitude": -73.4775,
    "isFirstNation": false
  },
  {
    "name": "Notre-Dame-de-la-Salette",
    "province": "QC",
    "latitude": 45.7669,
    "longitude": -75.5837,
    "isFirstNation": false
  },
  {
    "name": "Petite-Rivière-au-Renard",
    "province": "QC",
    "latitude": 49.0042,
    "longitude": -64.4241,
    "isFirstNation": false
  },
  {
    "name": "Saint-Alexandre-de-Kamouraska",
    "province": "QC",
    "latitude": 47.6821,
    "longitude": -69.6191,
    "isFirstNation": false
  },
  {
    "name": "Saint-Bernard-de-Michaudville",
    "province": "QC",
    "latitude": 45.8273,
    "longitude": -73.0623,
    "isFirstNation": false
  },
  {
    "name": "Saint-Côme-Linière",
    "province": "QC",
    "latitude": 46.0606,
    "longitude": -70.5234,
    "isFirstNation": false
  },